[
        {
            "No": "01",
            "Name": "三仙台",
            "Category": "台東",
            "Area": "成功鎮",
            "Description": "位於臺東縣成功鎮東北方的三仙台，全島面積約22公頃，最高點海拔約77公尺。地質屬於都巒山集塊岩，原是一處岬角，但因海水侵蝕，逐漸蝕斷岬角頸部，而成了離岸島，島的四周珊瑚礁環繞，海底熱帶魚群聚，適合潛水和游泳。而因其為火山噴發而出的小島，島上奇石分布，除了仙劍峽、合歡洞等與三仙台故事有關的天然奇景外，並且散布著海蝕溝、壼穴、海蝕柱、海蝕凹壁等海蝕景觀，登島遊覽頗富尋幽訪勝之趣。其中又以三座珊瑚礁岩形成的山峰最為獨特，因此民間相傳，八仙過海時，李鐵拐，何仙姑和呂洞賓曾在此休憩，烙印了仙跡，因此取名為三仙台。\r\n<br><br>\r\n除了充滿故事外，生態景觀豐富的三仙台，可是海洋性鳥類的最佳棲息環境，礫岩之間有岩鷺出沒，夏天常見燕鷗，附近海域魚類豐富，是漁場亦是有名的磯釣場所。 島上處處可見林投、臺灣海棗、白水木、濱刀豆等濱海植物，是研究海岸植物生態的重要據點，並被列為自然保護區。島的南端到基翬一帶海域，有美麗的珊瑚礁和熱帶魚群，而臺灣特有種「臺灣擬絲珊瑚」也在這裡的海面下生活，三仙台可是花東海岸線海底景觀最美的地方。\r\n",
            "Address": " 臺東縣成功鎮三仙里基翬路74號 ",
            "Tel": "089-854097",
            "Hours": "08:30 – 17:00",
            "Figure": "fig/TGE-3402-TaitungResort-01.jpg",
            "Link": "https://tour.taitung.gov.tw/zh-tw/attraction/details/333"
        },
        {
            "No": "02",
            "Name": "伯朗大道",
            "Category": "台東",
            "Area": "池上鄉",
            "Description": "筆直的伯朗大道正式名稱為錦新三號道路，全長約2.2公里，由於兩旁毫無電線桿，加上逢稻穗成熟時，道路兩旁無邊無際的金色稻穗隨風搖曳，寧靜的田園景緻，被伯朗咖啡選中拍攝廣告，之後金城武代言的長榮航空亦來此取景，自此聲名大噪，將這條道路暱稱為「伯朗大道」。",
            "Address": " 臺東縣池上鄉伯朗大道 ",
            "Tel": "089-862041",
            "Hours": "24 小時營業",
            "Figure": "fig/TGE-3402-TaitungResort-02.jpg",
            "Link": "https://tour.taitung.gov.tw/zh-tw/attraction/details/430"
        },
        {
            "No": "03",
            "Name": "池上197公路",
            "Category": "台東",
            "Area": "關山鎮",
            "Description": "因為行政院農委會水土保持局臺東分局主辦的「萬物糧倉大地慶典」，策劃了「漂鳥197-縱谷大地藝術季」，邀請芬蘭、德國、土耳其、日本及臺灣的10位環境藝術家駐村創作，五月底總共有12件戶外裝置藝術作品完成，正等著旅人到訪發現。\r\n<br><br>\r\n這些作品就沿著197縣道由北至南分布於台東池上萬安村、振興村及關山電光里等處設置，猶如閱讀印度詩人泰戈爾柔美的《漂鳥集》，展期為6月1日到10月13日。創作者把自身的觀點，融合地方特色，透過作品呈現在各個角落，期待成為旅人或在地的共同記憶。",
            "Address": "臺東縣關山鎮197縣道(關山至池上)",
            "Tel": "089-323057",
            "Hours": "24 小時營業",
            "Figure": "fig/TGE-3402-TaitungResort-03.jpg",
            "Link": "https://tour.taitung.gov.tw/zh-tw/event-calendar/details/4678"
        },
        {
            "No": "04",
            "Name": "都歷海灘-天空之鏡",
            "Category": "台東",
            "Area": "成功鎮",
            "Description": "阿美語Torik，就是將東西綁好固定，或編織的意思。因此，都歷部落也不負Torik之名，以擅長編製器物著稱。\r\n\r\n月桃是都歷部落的生命之一，來到都歷，一定不能錯過月桃相關產品。除了部落婦女們使用月桃葉編織出的產品之外，也有使用月桃其他部位做成的月桃花醬與月桃草鹽。\r\n<br><br>\r\n除了部落風情之外，都歷部落附近也有許多景點可以一窺究竟。鄰近都歷部落，原本是前往泰源幽谷唯一路徑的單向隧道小馬隧道，以及滿布蝙蝠及鐘乳石，更在其中發掘出兩萬五千年前文物的小馬龍洞；日治時期供日人參拜的都歷神社等，無處不在歷史的痕跡。",
            "Address": " 臺東縣成功鎮都歷路63之一號 ",
            "Tel": "0966-509919",
            "Hours": "09:00 – 17:00",
            "Figure": "fig/TGE-3402-TaitungResort-04.jpg",
            "Link": "https://tour.taitung.gov.tw/zh-tw/attraction/details/1278"
        },
        {
            "No": "05",
            "Name": "鐵花村",
            "Category": "台東",
            "Area": "臺東市",
            "Description": "臺東市的夜晚不寂寞，來到由臺鐵貨倉宿舍改造的鐵花村音樂聚落，聽著原民歌手高亢清亮的創作，享受山海文化孕育出澎湃的歌聲，喝上一杯鐵花吧的臺東特調，偷得浮生半日閒。而一旁的假日慢市集，販售著獨特的手作小物、農特產品，不妨與創作者、小農們聊聊天，感受臺東人的熱情與樂活自在的氛圍。",
            "Address": "臺東縣臺東市新生路135巷26號 ",
            "Tel": "089-343393",
            "Hours": "15:00 – 22:00",
            "Figure": "fig/TGE-3402-TaitungResort-05.jpg",
            "Link": "https://tour.taitung.gov.tw/zh-tw/attraction/details/452"
        },
        {
            "No": "06",
            "Name": "多良車站",
            "Category": "台東",
            "Area": "太麻里",
            "Description": "多良火車站原為臺鐵招呼站，因業務清淡自2006年7月1日起結束旅客業務，同年10月1日正式裁撤。\r\n\r\n因站址原為山坡地，南迴鐵路工程處特別將車站以高架設計，一樓為候車室與售票處，二樓為月台，月台上的紅色欄杆為明顯特色，站在此處可鳥瞰太平洋，被譽為全臺灣最美的車站，吸引許多鐵道迷前來朝聖。",
            "Address": " 臺東縣太麻里鄉多良村瀧溪路8-1號 ",
            "Tel": "089-781301",
            "Hours": "10:00 – 19:00",
            "Figure": "fig/TGE-3402-TaitungResort-06.jpg",
            "Link": "https://tour.taitung.gov.tw/zh-tw/attraction/details/429"
        },
        {
            "No": "07",
            "Name": "鹿野高台",
            "Category": "台東",
            "Area": "鹿野鄉",
            "Description": "臺灣第一個以熱氣球打造新鮮形象的鹿野高台，是臺東熱門的觀光景點。從2011年開始，每年6月至8月舉行的國際熱氣球嘉年華，不僅是辦理期間最長、參與熱氣球數量多之外，花東縱谷的美景和不易掌握的風向、氣流，深深吸引各國飛行員、熱氣球玩家前來挑戰和欣賞，乘著五彩繽紛的熱氣球起飛，讓夏季臺東的天空充滿年輕熱情的氛圍。",
            "Address": "臺東縣鹿野鄉永安村高台路46號 ",
            "Tel": " 089-551637",
            "Hours": "24 小時營業",
            "Figure": "fig/TGE-3402-TaitungResort-08.jpg",
            "Link": "https://tour.taitung.gov.tw/zh-tw/attraction/details/450"
        },
        {
            "No": "08",
            "Name": "台東森林公園",
            "Category": "台東",
            "Area": "臺東市",
            "Description": "臺東森林公園舊稱「黑森林」，位於卑南溪出海口，由於整片區域為了防風而種植木麻黃，遠看林相一片漆黑而得名。臺東森林公園到市區僅需幾分鐘的車程，遼闊的園區內擁有豐富的河口海濱溼地生態、廣大的草地與茂盛的森林，而自行車道穿越木麻黃林並串聯琵琶湖、活水湖、鷺鷥湖三處湖泊，平緩的車道騎起來十分舒適，很適合親子踏青騎鐵馬，享受悠閒的午後時光，欣賞湖光山色的美景。",
            "Address": " 臺東縣臺東市華泰路300號 ",
            "Tel": " 089-362025",
            "Hours": "入園時間：06:00 - 19:00\r\n收費時間：07:30 - 17:30",
            "Figure": "fig/TGE-3402-TaitungResort-09.jpg",
            "Link": "https://tour.taitung.gov.tw/zh-tw/attraction/details/454"
        },
        {
            "No": "09",
            "Name": "嘉明湖",
            "Category": "台東",
            "Area": "海端鄉",
            "Description": "位在南部橫貫公路、向陽北方，直線約7公里的高山湖泊嘉明湖，是一座被譽為「高山藍寶石」、「天使的眼淚」的橢圓形湖泊。由翠綠的森林植被所環繞，清澈的湖面映照著天空的湛藍，深不可測，彷若人間仙境般的靜謐。傳說中嘉明湖的形成，是因隕石撞擊地球表面後造成的隕石坑，相當罕見。\r\n<br><br>\r\n向陽上方的嘉明湖是臺灣第二高的高山湖泊，僅次於雪山翠池。湖面呈橢圓形，長約120公尺，寬約80公尺，深約6公尺，標高約3,310公尺。要上嘉明湖之前，必須到向陽國家森林遊樂區裡的向陽派出所辦理登山手續，才能確保自身安全。",
            "Address": " 臺東縣海端鄉南橫公路三叉山東側 ",
            "Tel": "089-324121#705、713",
            "Hours": "天黑後禁止通行",
            "Figure": "fig/TGE-3402-TaitungResort-10.jpg",
            "Link": "https://tour.taitung.gov.tw/zh-tw/attraction/details/229"
        },
        {
            "No": "10",
            "Name": "台東海濱公園",
            "Category": "台東",
            "Area": "臺東市",
            "Description": "臺東是一塊不同族群交會與融合的土地，創作者《游文富》以兩端延伸的走道像是張開雙臂擁抱大地與人民，呈現具有綿延深長的樹根之意象，屋頂採用波浪性木編結構，象徵著海浪及山派綿延不斷，生生不息、在地著根、向上提升的生命力。到了夜間，每晚的八點與九點整各有一場不同主題之光雕音樂演出，結合國際交響樂及原住民風格組曲，編織屬於臺東的夜晚。",
            "Address": " 臺東縣臺東市大同路 ",
            "Tel": "089-357095",
            "Hours": "24 小時營業",
            "Figure": "fig/TGE-3402-TaitungResort-11.jpg",
            "Link": "https://tour.taitung.gov.tw/zh-tw/attraction/details/308"
        },
        {
            "No": "11",
            "Name": "加路蘭遊憩區",
            "Category": "台東",
            "Area": "臺東市",
            "Description": "加路蘭，它是東河鄉的阿美族部落，阿美族語稱為「kararuan」，意指洗頭髮的地方，因為附近小溪富含黏地礦物質，洗髮後自然潤濕亮麗而得名。\r\n\r\n加路蘭遊憩區原本為空軍建設志航基地時的廢棄土置放場所，經東管處數次以生態工法整建後，新增停車場、觀景台及裝置藝術，將廢棄區域整理成一個富有風情的遊憩區域與休息站。",
            "Address": "臺東縣臺東市富岡漁港往北走1公里 ",
            "Tel": "089-281530",
            "Hours": "24 小時營業",
            "Figure": "fig/TGE-3402-TaitungResort-13.jpg",
            "Link": "https://tour.taitung.gov.tw/zh-tw/attraction/details/300"
        }
    ]