{
    "工作表1": [
        {
            "NO": "001",
            "Name": "魏姐包心粉圓",
            "Category": "宜蘭",
            "Type": "羅東鎮",
            "Description": "包心粉圓是宜蘭在地的特色甜點小食，是將萬丹紅豆包在粉圓裡頭，打造獨特的美味與口感。包心粉圓也會搭配花生或雪沙冰，多樣的口味與組合，讓包心粉圓的層次與享受更佳的多元，遍佈宜蘭的分店也讓你在需要一份甜蜜口感時都可以吃得到。",
            "Address": "宜蘭縣羅東鎮羅莊街398號",
            "Tel": "03 960 6899",
            "Hours": "08:00 – 17:00",
            "Figure": "fig/TGE-5101-YilanFood-01.jpg",
            "Link": "http://www.weiheart.com/"
        },
        {
            "NO": "002",
            "Name": "北門綠豆沙牛乳大王",
            "Category": "宜蘭",
            "Type": "宜蘭市",
            "Description": "北門綠豆沙牛乳大王是宜蘭市區中山路上非常知名的必吃美食，最主打的綠豆沙牛乳非常的香純濃郁，綠豆沙打得非常的細緻綿密，許多人喝過都讚不絕口。除了綠豆沙牛乳以外，芋頭以及木瓜牛乳也都是非常推薦的選擇！",
            "Address": "宜蘭市中山路三段208號",
            "Tel": "03 932 2852",
            "Hours": "週三至週六 10:00 - 17:00",
            "Figure": "fig/TGE-5101-YilanFood-02.jpg",
            "Link": "https://www.facebook.com/beimen.milking/"
        },
        {
            "NO": "003",
            "Name": "正好鮮肉小籠包",
            "Category": "宜蘭",
            "Type": "宜蘭市",
            "Description": "正好鮮肉小籠包也是許多人到宜蘭必吃的美食，湯包裡包有滿滿的三星蔥，另外的一大特色是外皮很薄，一口咬下，讓鮮甜的肉汁以及蔥香流溢於口中。除了小籠包以外，配上一碗酸辣湯，是許多人推薦的必吃組合！",
            "Address": "宜蘭縣宜蘭市泰山路25-1號",
            "Tel": "03 932 5641",
            "Hours": "週二至週日 10:00 - 15:00",
            "Figure": "fig/TGE-5101-YilanFood-03.jpg",
            "Link": "https://www.facebook.com/gogogoeateat/"
        },
        {
            "NO": "004",
            "Name": "林場肉羹",
            "Category": "宜蘭",
            "Type": "羅東鎮",
            "Description": "林場肉羹是位在羅東林場附近的五十年必吃老店，只賣一個品項「肉羹」，保留了非常傳統古早的美味，可以加麵或加飯加米粉。肉羹的量很多，可以吃出豬肉原本的口感與美味，羹湯也經過特別調製而帶點香甜，是非常暖心的一道傳統美食。",
            "Address": "宜蘭縣羅東鎮中正北路109號",
            "Tel": "03 955 2736",
            "Hours": "07:00 - 18:00 週三公休",
            "Figure": "fig/TGE-5101-YilanFood-04.jpg",
            "Link": "https://m.facebook.com/profile.php?id=108847915863970&ref=stream"
        },
        {
            "NO": "005",
            "Name": "阿灶伯當歸羊肉",
            "Category": "宜蘭",
            "Type": "羅東鎮",
            "Description": "阿灶伯當歸羊肉是羅東夜市的知名排隊美食，也是編輯每次到羅東夜市都一定會吃的店家！推薦必點的就是當歸羊肉湯，羊肉鮮嫩而不腥，湯頭有當歸的香甜，非常推薦！另外臭豆腐也是許多人推薦的餐點。阿灶伯其實出餐速度很快，會排隊主要是因為座位有限，如果比較不怕麻煩，建議可以點外帶，到附近的公園坐著吃哦！",
            "Address": "宜蘭縣羅東鎮民權路265號",
            "Tel": "03 954 7736",
            "Hours": "16:00 - 01:00 週三公休",
            "Figure": "fig/TGE-5101-YilanFood-05.jpg",
            "Link": "https://www.facebook.com/pages/%E9%98%BF%E7%81%B6%E4%BC%AF%E7%95%B6%E6%AD%B8%E7%BE%8A%E8%82%89%E6%B9%AF/762427757427572?hc_ref=ARQMVxkGmC-FId72O_wJ2S_FIMGpjJU5g3HrQRLTiKunQi6g22MwHhNPcfM-m3E8nnI&fref=tag"
        },
        {
            "NO": "006",
            "Name": "小島日和",
            "Category": "宜蘭",
            "Type": "羅東鎮",
            "Description": "小島日和是近幾年在羅東開設的日式冰品店，小巧溫馨的店面，以花牆以及乾燥花作為裝飾，營造出輕柔舒服的用餐空間。店內以各種造型吸睛的水果冰品聞名，不只每一道都能夠po上IG打卡。除了外型，口味也是令人幸福感洋溢，來到羅東不妨用小島日和的冰品點綴你的宜蘭旅程吧！",
            "Address": "宜蘭縣羅東鎮中山路三段208號",
            "Tel": "03 956 1505",
            "Hours": "週三至週日 12:00 - 20:00",
            "Figure": "fig/TGE-5101-YilanFood-06.jpg",
            "Link": "https://www.facebook.com/GoodDayIsland/"
        },
        {
            "NO": "007",
            "Name": "柯氏蔥油餅",
            "Category": "宜蘭",
            "Type": "礁溪",
            "Description": "來到盛產蔥的宜蘭，蔥油餅當然是來宜蘭的必吃小吃！位在礁溪的柯氏蔥油餅，又可以說是宜蘭最為知名的一家蔥油餅店家，外皮金黃酥脆，咬起來蓬鬆Q彈有嚼勁，\b編輯最愛的組合是加蛋並刷上蒜味醬油，蛋香、蔥香和麵粉像一次在口中綻放，非常令人上癮！",
            "Address": "宜蘭縣礁溪鄉礁溪路四段128號",
            "Tel": "0975 963 625",
            "Hours": "09:00 - 18:15 週末至18:00",
            "Figure": "fig/TGE-5101-YilanFood-07.jpg",
            "Link": "https://www.facebook.com/pages/category/Local-Business/%E7%A4%81%E6%BA%AA%E6%9F%AF%E6%B0%8F%E4%BA%8C%E5%A7%90%E8%94%A5%E6%B2%B9%E9%A4%85-709846139372184/"
        },
        {
            "NO": "008",
            "Name": "白水豆花",
            "Category": "宜蘭",
            "Type": "礁溪",
            "Description": "白水豆花是位於礁溪的一家豆花小店，以吃得出豆香的鹽滷豆花為主打，豆花上會灑上麥芽花生糖刨成的花生糖粉，吃起來更多了口感層次，也帶出另一種清甜香氣。除了豆花，店內擺設與使用的石器也都顯得精緻沈穩，是非常推薦來到礁溪必吃的宜蘭甜品小食。",
            "Address": "宜蘭縣礁溪鄉德陽路68號",
            "Tel": "0968 023 785",
            "Hours": "13:00 - 20:00 週三週四公休",
            "Figure": "fig/TGE-5101-YilanFood-08.jpg",
            "Link": "https://www.facebook.com/baishuidouhua/"
        },
        {
            "NO": "009",
            "Name": "樂山溫泉拉麵",
            "Category": "宜蘭",
            "Type": "礁溪",
            "Description": "來到宜蘭溫泉鄉「礁溪」，邊泡腳邊吃拉麵是這裡最特別的用餐體驗！樂山拉麵提供泡腳池，讓你能夠一邊享受平價、美味的拉麵，一邊享受礁溪的溫泉。除了拉麵以外，也很推薦海鮮丼。建議冬天來到礁溪時，可以到樂山拉麵享受滿滿的暖意哦！",
            "Address": "宜蘭縣礁溪鄉礁溪路五段108巷1號",
            "Tel": "03 988 8637",
            "Hours": "11:30 - 14:00, 17:00 - 21:00",
            "Figure": "fig/TGE-5101-YilanFood-09.jpg",
            "Link": "https://www.facebook.com/pages/%E5%AE%9C%E8%98%AD-%E7%A4%81%E6%BA%AA%E6%A8%82%E5%B1%B1%E6%BA%AB%E6%B3%89%E6%8B%89%E9%BA%B5/304904102871183"
        },
        {
            "NO": "010",
            "Name": "阿宗芋冰城",
            "Category": "宜蘭",
            "Type": "頭城",
            "Description": "頭城的阿宗芋冰城堅持以古早手法製作叭噗，和一般的冰淇淋不一樣，不添加乳製品與添加物，全都是以食物原料製成，因此都吃得到食材本身的顆粒與香氣，除了最受歡迎的芋頭口味，另外也有紅豆、鳳梨、花生、桂圓、紫米。一杯可以任選三種口味，每次來頭城都一定要來吃上一碗！",
            "Address": "宜蘭縣頭城鎮青雲路三段267號",
            "Tel": "03 977 1362",
            "Hours": "09:00 - 21:00",
            "Figure": "fig/TGE-5101-YilanFood-10.jpg",
            "Link": "http://www.ajon.com.tw/"
        },
        {
            "NO": "011",
            "Name": "古早味甕窯雞",
            "Category": "宜蘭",
            "Type": "礁溪",
            "Description": "位於礁溪路7段上的甕窯雞，\r\n全台共有5家直營店，和家人吃過嘉義中埔交流道下的甕窯雞，每每經過總是人潮絡繹不絕，那金黃油亮的窯烤雞風味令人回味無窮，",
            "Address": "宜蘭縣礁溪鄉礁溪路七段7號",
            "Tel": "0918 717 288",
            "Hours": "平日09:00 - 22:00 假日09:00 - 23:00",
            "Figure": "fig/TGE-5101-YilanFood-11.jpg",
            "Link": "https://www.facebook.com/yilan.weng.yao.ji/"
        },
        {
            "NO": "012",
            "Name": "甲富哥活海產",
            "Category": "宜蘭",
            "Type": "冬山鄉",
            "Description": "甲富哥活海產在宜蘭當地很有名. 甲富哥海產沒有菜單\r\n點餐方式就是看今天有什麼食材, 不管是蔬菜還是海鮮,都是看現場有什麼就點什麼",
            "Address": "宜蘭縣冬山鄉廣興路87號",
            "Tel": "03 961 3877",
            "Hours": "11:30–14:00, 17:30–20:15",
            "Figure": "fig/TGE-5101-YilanFood-12.jpg"
        }
    ]