[
        {
            "No": "01",
            "Name": "外澳海灘",
            "Category": "宜蘭",
            "Area": "頭城鎮",
            "Description": "外澳海灘又被稱為港澳海灘或港澳沙灘，位於當年船隻雲集的烏石港之外，因此稱為外澳。外澳海灘在烏石港的北面，擁有廣大平坦而乾淨的沙灘，一波波潔白的浪花打上岸來，隱約可見遠方的龜山島，是親子戲水與衝浪客喜歡的海域。",
            "Address": "\r\n宜蘭縣頭城鎮外澳里濱海路2段6號 ",
            "Hours": "全年開放",
            "Figure": "fig/TGE-3202-YilanResort-01.jpg",
            "Link": "https://travel.yilan.tw/zh-tw/attraction/details/388"
        },
        {
            "No": "02",
            "Name": "蘭陽博物館",
            "Category": "宜蘭",
            "Area": "頭城鎮",
            "Description": "蘭陽博物館是一座與大地共生的建築，建築主體建造在烏石港礁遺址的西北側，以便完整保留濕地的自然生態，因特殊的建築外觀，成為宜蘭的著名地標。\r\n<br><br>\r\n主建築物融入北關海岸一帶常見的單面山的形體。也為了呈現蘭陽平原四季的田野色調，以韋瓦第的四季主旋律做為發想，外牆採用有質感的石材，做排列組合，仿造單面山的岩石紋理，並隨著四季與天色的光影變化而有不同的色調。\r\n <br><br>\r\n走在蘭陽博物館的走道上，抬頭看見館徽，館徽以葛瑪蘭族的傳統木刻人形圖案為設計理念，表達著「人和自然的和諧共生」及「人與歷史的聯想」。在館內常設展主題結合建築特色，由上而下分別設立山之層、平原層、海之層、時光廊，藉由這些展覽來表現宜蘭的地理環境、人文歷史以及豐富的自然生態。",
            "Address": "宜蘭縣頭城鎮青雲路三段 ",
            "Tel": "\r\n03-9779700",
            "Hours": "週四至週二:9:00~17:00PM(售票時間:09:00-16:30)2. 休館日: 每週三(若逢國定假日照常開放) ",
            "Figure": "fig/TGE-3202-YilanResort-02.jpg",
            "Link": "https://travel.yilan.tw/zh-tw/attraction/details/321"
        },
        {
            "No": "03",
            "Name": "龜山島賞鯨&登島",
            "Category": "宜蘭",
            "Area": "頭城鎮",
            "Description": "無論走陸路或海陸，只要看到龜山島，就知道宜蘭到了。位在宜蘭縣頭城鎮海岸以東約十公里處，是宜蘭縣縣屬島嶼之中最大、也是唯一有人居住的龜山島，也是台灣地區目前尚存的活火山。龜山島因其型似浮龜而得名，自民國七十七年解除戒嚴後，在宜蘭縣政府及地方民意代表多年積極努力之下，行政院於民國八十八年將龜山島納為東北角暨宜蘭海岸國家風景區內。 依龜山島人文及生態資源特性，規畫成為兼具知性及感性之海上生態公園，藉由遊客容納量的管制，減少旅遊環境衝突，並結合鄰近海域賞鯨活動，成為北部藍色公路熱門的旅遊景點。龜山島有一個海底世界，在熱騰騰的硫磺及強酸的環境之下，還有成千上萬的螃蟹生存著，成為一個罕見現象。 龜山島上著名的美景龜湖，又名龜尾潭，原來是一個淡水湖，後來島上居民引海水進湖，本希望成為一個漁港，但是居民每次築堤都被颱風吹垮而堵住，所以現在是鹹淡各半的湖泊。湖的對岸有一座觀音像，安詳的守護著龜尾潭及居民。從島上駐軍營往前望去，山勢陡峭而且綠意盎然，山巒稜線分明，猶如一位美人仰天，還可以清楚的看見美人的形態，讓人讚嘆大自然的巧奪天工。龜山島的末端為一道鵝卵石長灘，因為受風向和潮水的影響，尾端會隨著季風而南北向移動，俗稱「靈龜擺尾」。",
            "Address": "宜蘭縣頭城鎮海岸以東約10公里處 ",
            "Tel": "\r\n03-9780727",
            "Hours": "欲申請登島者請於登島日前20至3天，以網路方式向交通部觀光局東北角暨宜蘭海岸國家風景區管理處申請",
            "Figure": "fig/TGE-3202-YilanResort-03.jpg",
            "Link": "https://travel.yilan.tw/zh-tw/attraction/details/348"
        },
        {
            "No": "04",
            "Name": "望龍埤",
            "Category": "宜蘭",
            "Area": "員山鄉",
            "Description": "望龍埤又名軟埤，坐落於宜蘭員山鄉枕山村湖山國小的後處。在數百年前因山洪爆發的關係，在大礁溪山麓而自然形成的一座湖泊，因望龍埤屬於山中湖泊，湖水與當地居民生活有相關，因此地方耆老從古諺中取名望龍埤，希望雨水豐足。",
            "Address": "宜蘭縣員山鄉枕山村坡城路 ",
            "Hours": "全年開放",
            "Figure": "fig/TGE-3202-YilanResort-04.jpg",
            "Link": "https://travel.yilan.tw/zh-tw/attraction/details/410"
        },
        {
            "No": "05",
            "Name": "蜊埤湖(落羽松)",
            "Category": "宜蘭",
            "Area": "員山鄉",
            "Description": "蜊埤湖位於員山福園的旁邊，在湖上建造一座追思橋，因高處眺望湖面形狀像張開嘴的蛤蜊，所以命名為蜊埤湖。\r\n \r\n蜊埤湖的湖畔種植了落羽松和銀杏，每逢秋冬的季節時，落羽松逐漸轉紅，展現橙黃、紅色那樣繽紛的色彩，倒映在廣大的湖面上顯得格外浪漫，湖上悠游的綠頭鴨多了幾分愜意之感，令人彷彿置身於國外的美景裡。",
            "Address": "\r\n宜蘭縣員山鄉蜊埤路11號 ",
            "Hours": "全年開放",
            "Figure": "fig/TGE-3202-YilanResort-05.jpg",
            "Link": "https://travel.yilan.tw/zh-tw/attraction/details/359"
        },
        {
            "No": "06",
            "Name": "幾米公園",
            "Category": "宜蘭",
            "Area": "宜蘭市",
            "Description": "當繪本走進了現實世界，你曾有想過他會是長什麼樣子嗎？在宜蘭火車附近的幾米廣場，終於圓了幾米粉絲的夢想。\r\n<br><br>\r\n幾米廣場原本是鐵路舊宿舍區，後來設置成國道客運的轉運中心，而宜蘭正是知名繪本家幾米的故鄉，因此以「記憶片刻風景」為主題，打造成全台灣第一座幾米主題廣場，同時也保留原有的歷史建築與老樹。\r\n <br><br>\r\n在這裡，你可以看見《向左走，向右走》的男女主角匆匆地往各自的方向離去，或是跟著《星空》裡的小男孩、小女孩，一起等著那一輛永遠不會來的公車，以及《地下鐵》中承載著旅人記憶的行李箱……出現在幾米公園裡的每一個裝置藝術，都讓人有無限的想像空間與感動。",
            "Address": "宜蘭縣宜蘭市宜興路一段240號 ",
            "Hours": "全年開放",
            "Figure": "fig/TGE-3202-YilanResort-06.jpg",
            "Link": "https://travel.yilan.tw/zh-tw/attraction/details/232"
        },
        {
            "No": "08",
            "Name": "幸福轉運站",
            "Category": "宜蘭",
            "Area": "宜蘭市",
            "Description": "幸福轉運站位於宜蘭火車站附近，走路約5分鐘的路程，鄰近的地點有幾米公園、鋼造樹木的丟丟噹森林。\r\n\r\n在以前是國光客運的閒置空間，後來改建為幸福轉運站。而整個園區用幾米《忘記親一下》作為主題，內有彩繪廢棄的公車、老舊的外牆，來成為新的裝置藝術。",
            "Address": "\r\n宜蘭縣宜蘭市宜蘭市宜興路一段117號 ",
            "Hours": "夏令時間(5-10月)每週四至週二上午9:30至下午6:00\r\n冬令時間(11-4月)每週四至週二上午9:00至下午5:30\r\n休館日：每週三（如遇國定例假日照常開放）",
            "Figure": "fig/TGE-3202-YilanResort-07.jpg",
            "Link": "https://travel.yilan.tw/zh-tw/attraction/details/460"
        },
        {
            "No": "09",
            "Name": "宜蘭文學館",
            "Category": "宜蘭",
            "Area": "宜蘭市",
            "Description": "宜蘭文學館坐落於宜蘭市區，旁邊緊鄰著宜蘭設治紀念館。帶有濃厚日式建築風格的宜蘭文學館，前身是舊農校的校長宿舍，後來經歷整修、恢復原貌後，成為宜蘭音樂館。為了要讓更多人了解蘭陽文學，如今改為宜蘭文學館。",
            "Address": "宜蘭縣宜蘭市舊城南路縣府二巷19號 ",
            "Tel": "03-9324349",
            "Hours": "09:00-17:00，週一公休",
            "Figure": "fig/TGE-3202-YilanResort-09.jpg",
            "Link": "https://travel.yilan.tw/zh-tw/attraction/details/311"
        },
        {
            "No": "10",
            "Name": "宜蘭設治紀念館",
            "Category": "宜蘭",
            "Area": "宜蘭市",
            "Description": "坐落於宜蘭市區的宜蘭設治紀念館，由日治時期宜蘭廳長西鄉菊次郎所籌建，原為宜蘭縣歷任行政首長官邸，本館主要呈現宜蘭設官治理的歷史發展。1997年經過專家與匠師的規劃與修護，整建後對外開放參觀。",
            "Address": "\r\n宜蘭縣宜蘭市舊城南路力行三巷3號 ",
            "Tel": "\r\n03-9326664",
            "Hours": "09:00-17:00，休館時間：週一、每月最後一天、除夕",
            "Figure": "fig/TGE-3202-YilanResort-10.jpg",
            "Link": "https://travel.yilan.tw/zh-tw/attraction/details/312"
        },
        {
            "No": "11",
            "Name": "五峰旗瀑布風景區",
            "Category": "宜蘭",
            "Area": "礁溪鄉",
            "Description": "五峰旗山位於宜蘭縣礁溪鄉西側，雪山山脈與蘭陽平原的交接處，遠遠望去，突出於平地的五座山巒異常醒目，宛如戲劇武生背上的五面旌旗，是礁溪鄉著名的風景區，峻峭的五奇峰，海拔雖只有 500 公尺，但山勢陡峭，絕壁橫生，此種峭壁絕巘的地形，乃是由十分堅硬的四稜砂岩地層所構成。山峰間有登山步道可以攀爬，步道盡頭是三層瀑布頂層，瀑布由狹谷直瀉山岩，瀑布全長約 100公尺，共分為三層。上層瀑布約 5 0 公尺，自峽谷奔流而下，穿過山岩的水流再形成中層瀑布由山壁中穿出，約 30 公尺，氣勢磅礡，立於「觀瀑亭」以極佳之視野近賞急瀉之姿，亦可遠眺翠綠山谷，下層瀑布約 20 公尺，自然形成小水潭，潭水清澈順流而下，水質清澈，清涼無比。炎炎夏季前來避暑，讓冰冷泉水清心滌慮。風景區闢有三層攔砂壩，是夏季嬉水的好去處。",
            "Address": "宜蘭縣礁溪鄉五峰路 ",
            "Tel": "\r\n03-9880940",
            "Hours": "全年開放",
            "Figure": "fig/TGE-3202-YilanResort-11.jpg",
            "Link": "https://travel.yilan.tw/zh-tw/attraction/details/85"
        },
        {
            "No": "12",
            "Name": "湯圍溝溫泉公園",
            "Category": "宜蘭",
            "Area": "礁溪鄉",
            "Description": "湯圍溝溫泉公園位於德陽路與仁愛路的中間，又名「燒水溝」的湯圍溫泉溝，是礁溪溫泉分部的中心，由於是自然湧出的泉水匯聚成流、熱氣蒸騰，所以溫度較高。為了創造湯圍溝歷史空間新風貌，宜蘭縣政府將此區規劃為溫泉公園，精心設計的水岸空間與景觀涼亭，以及充滿禪意的檜木風呂與半戶外泡腳池，也有小橋流水的造景與茂盛又活力的花草樹木，來到湯圍溝溫泉公園，不要忘了拍照留念喔，這裡美麗的景物一定可以讓你想一拍再拍！重新規劃利用後的湯圍溝讓在地民眾能重溫舊有的泡湯記憶，也讓外來遊客可享受自然舒適的檜木溫泉；也設有男女公共浴池，是相當完備的旅遊景點，另外也可欣賞街頭藝人精彩的表演以及享受溫泉魚SPA，享受礁溪這夜間活動的新據點。",
            "Address": "\r\n宜蘭縣礁溪鄉德陽路99之11號 ",
            "Tel": "\r\n03-9874882",
            "Hours": "8:00~12:30、13:00~17:00、17:30~24:00",
            "Figure": "fig/TGE-3202-YilanResort-12.jpg",
            "Link": "https://travel.yilan.tw/zh-tw/attraction/details/92"
        },
        {
            "No": "13",
            "Name": "礁溪溫泉公園",
            "Category": "宜蘭",
            "Area": "礁溪鄉",
            "Description": "宜蘭縣政府繼建置湯圍溝溫泉公園，提供了遊客休息泡湯的好去處後，又於礁溪溫泉會館遊客中心現址，規劃設計礁溪溫泉公園，除保留原有自然生態的特殊環境及傳統生活型態，也建置了以日本和風式設計、約可容納200人的泡湯池，為礁溪觀光旅遊增添一處新景點。礁溪溫泉屬弱鹼性的碳酸氫鈉泉，水溫約在攝氏50度，色清無味，浸泡後，皮膚光滑柔嫩，一點也不黏膩，對腸胃、皮膚都有良好的調養作用，有「美人湯」美譽，堪稱台灣溫泉之極品，想要保養身體的遊客一定要來享受！溫泉公園內設有旅遊服務中心，提供來到宜蘭的旅客縣內相關旅遊觀光資訊諮詢服務；溫泉公園的設計，除有保留自然生態的景觀外，並規劃建置日本和風設計風格之溫泉風呂，讓民眾一年四季都能享受溫泉洗浴的樂趣。",
            "Address": "宜蘭縣礁溪鄉公園路16號 ",
            "Tel": "03-9872998",
            "Hours": "9點－22點",
            "Figure": "fig/TGE-3202-YilanResort-13.jpg",
            "Link": "https://travel.yilan.tw/zh-tw/attraction/details/97"
        },
        {
            "No": "15",
            "Name": " 林美石磐步道",
            "Category": "宜蘭",
            "Area": "礁溪鄉",
            "Description": "位於礁溪鄉林美村的林美石磐步道是一個環狀的步道，名稱是由「林美」、「石磐」所組成的。「林美」是指當地村名(礁溪鄉林美村)，當地早期的地名為「林尾」，後來才改為「林美」。「石磐」則是指「石磐瀑布」，步道全程1.7公里，有凹谷、溪流、瀑布、石磐、原始林相與筆筒樹林，沿途景色多樣且生態豐富，此步道生態豐富，路線平緩，可戲水賞瀑，沿途山宗、筆筒樹滿佈山野，壯觀的大瀑布與小水潭分布其間，自然景觀野趣十足。步道途中設有觀景平台，讓遊客可以在觀景平台休息時，也能鳥瞰整個蘭陽平原，大飽眼福。不論是老年人、年輕人或小朋友，都適合行走在林蔭步道下，吸收清新自然的林間植物芬多精，有種說不出的舒適感，伴隨著大自然的流水聲，讓人放鬆舒暢，心曠神怡。",
            "Address": "宜蘭縣礁溪鄉林美村 ",
            "Tel": "\r\n03-9545114",
            "Hours": "全年開放",
            "Figure": "fig/TGE-3202-YilanResort-15.jpg",
            "Link": "https://travel.yilan.tw/zh-tw/attraction/details/100"
        },
        {
            "No": "16",
            "Name": "龍潭湖風景區",
            "Category": "宜蘭",
            "Area": "礁溪鄉",
            "Description": "龍潭湖，舊名為「大埤湖」，俗稱「大陂湖」。為昔日「蘭陽十二勝」之一，也是宜蘭五大名湖中面積最大的湖泊，保留著原始自然的樸實風貌，位於礁溪鄉龍潭村，距離宜蘭市約6公里，交通便利。此湖三面環山，面積將近20公頃，非常遼闊，水深4.5丈，寺廟環山林立，暮鼓晨鐘，清澈的水質，湖面如明鏡通徹，泛漾青山倒影，景緻宜人，湖中可以搖槳泛舟尋幽，湖光山色悠遠寧靜，環湖道路漫步或慢跑，水波與矯健身影為伴，看做遊龍出水亦無不可。黃龍山黃帝神宮與漳福廟等等就在湖旁，其中漳福廟是龍潭村居民的信仰中心，廟入口處附近有一棵約和新廟同齡的樹木，樹下還另有石造的涼椅和石桌，供漳福路一帶居民乘涼。",
            "Address": "宜蘭縣礁溪鄉礁溪鄉龍潭村環湖路1號 ",
            "Tel": "\r\n03-9280141",
            "Hours": "全年開放",
            "Figure": "fig/TGE-3202-YilanResort-16.jpg",
            "Link": "https://travel.yilan.tw/zh-tw/attraction/details/104"
        },
        {
            "No": "17",
            "Name": "冬山河自行車道",
            "Category": "宜蘭",
            "Area": "冬山鄉",
            "Description": "坐落於冬山火車站旁的冬山河自行車道，交通十分方便，容易租借自行車，是一條平易親人、四季都適合騎自行車的車道。\r\n冬山河自行車道，以冬山火車站作為起點到五結大閘門為終點，沿途經過冬山森林公園、清水橋、珍珠休閒農業區、冬山河親公園、國立傳統藝術中心等等著名景點。",
            "Address": "宜蘭縣冬山鄉冬山河兩旁 ",
            "Hours": "全年開放",
            "Figure": "fig/TGE-3202-YilanResort-17.jpg",
            "Link": "https://travel.yilan.tw/zh-tw/attraction/details/345"
        },
        {
            "No": "18",
            "Name": "生態綠舟",
            "Category": "宜蘭",
            "Area": "冬山鄉",
            "Description": "冬山河生態綠舟位於宜蘭冬山河的中上游，是擁有廣大腹地的公園，面積(含水域)約18公頃，視野遼闊，以森林主題為主，將冬山河融為一體自然型態的森林公園，並創造出豐富的自然生態。\r\n<br><br>\r\n在正式開園之前，在這塊土地上陸陸續續調查出很多物種，像鳥類、魚類、蛙類、爬蟲類等，這裡就是野生動植物的家，而為了保護他們的棲息地與生活環境，需減少人為干擾，並禁止騎自行車、放風箏、釣魚等造成破壞或影響的行為。\r\n\r\n冬山河生態綠舟的東岸保有原生植被，成為侯鳥的棲息地，不過除了賞鳥、搭船探索生態以外，園內設有冬山河鐵路橋、大地遊戲區、賞鳥平台、步道等設施，是具有休閒與自然生態教育意義的森林公園。",
            "Address": "宜蘭縣冬山鄉冬山路二段172號 ",
            "Tel": "\r\n03-9591314",
            "Hours": "森之脈橋後方生態園區18：00關閉不開放\r\n森之脈橋管制門前(大地遊戲區)夜間免費開放至22：00",
            "Figure": "fig/TGE-3202-YilanResort-18.jpg",
            "Link": "https://travel.yilan.tw/zh-tw/attraction/details/259"
        },
        {
            "No": "19",
            "Name": "新寮瀑布步道",
            "Category": "宜蘭",
            "Area": "冬山鄉",
            "Description": "同位於中山休閒農業區的新寮瀑布步道，全程有茂密的自然林、清澈的溪流為伴，還有250公尺瀑布，景致怡人。沿途可欣賞褐樹蛙、斯文豪氏赤蛙與柑橘鳳蝶、短腹幽蟌、薄翅蜻蜓、無尾鳳蝶及台灣紫嘯鶇、鉛色水鶇、台灣獼猴等，來回約2小時，不會覺得太疲累。 為保留自然生態，沿途除兩座越溪吊橋、兩小段木梯搭建的陡峭路段，其餘大多就地取材，利用黑石板、原木鋪設而成。前段的木屑步道，是以鋸木剩下的小木片鋪成的，走起來很舒適，還不時散放出原木的芳香氣味，更是吸取芬多精及陰離子的好地方。步道旁有林蔭與溪水，走起來清爽、自在，不需涉水就能抵達瀑布。步道盡頭還有觀瀑平台（距離瀑布僅六、七十公尺），可近距離體驗瀑布傾瀉而下的磅礡氣勢，瀑布飛濺的水花所產生的陰離子特別多，有亞熱帶雨林的景致。",
            "Address": "宜蘭縣冬山鄉中山村新寮二路盡頭 ",
            "Tel": "\r\n03-9580169",
            "Hours": "全年開放",
            "Figure": "fig/TGE-3202-YilanResort-19.jpg",
            "Link": "https://travel.yilan.tw/zh-tw/attraction/details/394"
        },
        {
            "No": "20",
            "Name": "梅花湖",
            "Category": "宜蘭",
            "Area": "冬山鄉",
            "Description": "梅花湖風景區位於冬山鄉中部，距離羅東火車站很近，堪稱交通便利，鄰近有中山茶園、中山瀑布、仁山植物園、台灣道教總廟三清宮等著名景點。\r\n<br><br>\r\n梅花湖是天然的蓄水池，三面環山，以前又名大埤、鏡湖，因湖的形狀像一朵五瓣的梅花，後來改名為梅花湖。梅花湖不僅擁有豐富的湖泊生態，也具備灌溉農田、水資源涵養的效用，是一座美麗的天然水庫。",
            "Address": "\r\n宜蘭縣冬山鄉得安村大埤路1號 ",
            "Tel": "03-9617267",
            "Hours": "\r\n09:00-17:30",
            "Figure": "fig/TGE-3202-YilanResort-20.jpg",
            "Link": "https://travel.yilan.tw/zh-tw/attraction/details/392"
        },
        {
            "No": "21",
            "Name": "羅東夜市",
            "Category": "宜蘭",
            "Area": "羅東鎮",
            "Description": "一踏進羅東夜市立刻感受到熱鬧萬分的人潮，它的範圍擴及民生路、民權路、公園路、興東路，羅東夜市除了小吃以外，還有平價服飾店、鞋店等，更是羅東市區逛街吃東西的好地方。\r\n\r\n由於小吃大部分集中在公園路上，有著公園小吃的俗稱，放眼望去，到處有人排隊等著餐點，想要好好享受羅東夜市的美食、不受人潮所苦的話，建議平日造訪，能夠悠閒地逛著夜市。如果只能假日來訪，建議下午4點以後或晚上10點過後，以避開假日人潮。",
            "Address": "宜蘭縣羅東鎮公園路 ",
            "Tel": "\r\n03-9545102",
            "Hours": "19:00-02:00",
            "Figure": "fig/TGE-3202-YilanResort-21.jpg",
            "Link": "https://travel.yilan.tw/zh-tw/attraction/details/246"
        },
        {
            "No": "22",
            "Name": "羅東運動公園",
            "Category": "宜蘭",
            "Area": "羅東鎮",
            "Description": "羅東運動公園坐落於羅東市區，距離羅東火車站約2公里，交通非常方便，並以水、綠、健康為園區設計的三大主題，把自然景觀與運動設施結合，整體設計融合了台灣本土特色和蘭陽的風情，創造出舒適的休閒活動空間。",
            "Address": "\r\n宜蘭縣羅東鎮公正路666號 ",
            "Tel": "03-9872403",
            "Hours": "全年開放",
            "Figure": "fig/TGE-3202-YilanResort-22.jpg",
            "Link": "https://travel.yilan.tw/zh-tw/attraction/details/247"
        },
        {
            "No": "23",
            "Name": "清水地熱",
            "Category": "宜蘭",
            "Area": "大同鄉",
            "Description": "沿著台7丙往上走，經過長埤湖以後，看見前方冒著白煙、充滿熱氣的地方，便是著名的清水地熱，再往前開便可以來到清水地熱公園。\r\n<br><br>\r\n清水地熱公園位於清水村南側的清水溪谷中，擁有豐富的地熱，屬於鹼性泉，泉水清澈，且泉水溫度高達攝氏95度C，是郊外野餐的好去處。\r\n<br><br>\r\n清水地熱公園原本是舊中油工作站的地熱廣場，在1981年完成台灣第一座地熱發電廠。而現在清水地熱公園的園內設有3個煮食池、2個泡腳池、休息區、販賣部等設施。",
            "Address": "\r\n宜蘭縣大同鄉三星路八段501巷139號 ",
            "Tel": "\r\n03-9894500",
            "Hours": "09:00-17:00",
            "Figure": "fig/TGE-3202-YilanResort-23.jpg",
            "Link": "https://travel.yilan.tw/zh-tw/attraction/details/251"
        },
        {
            "No": "24",
            "Name": "鳩之澤溫泉",
            "Category": "宜蘭",
            "Area": "大同鄉",
            "Description": "鳩之澤溫泉是太平山國家森林遊樂區的中間據點，位於多望溪環繞的幽谷中，以往稱作仁澤，因此有地熱、溫泉等資源，故昔又稱「燒水」，民國九十三年更名為鳩之澤溫泉，周圍山巒青 翠、風光秀麗，多望溪在此呈曲流狀穿越。 鳩之澤溫泉泉質屬弱鹼性碳酸溫泉，水溫可達攝氏一百四十度，水質清澈無硫磺臭味，非常適合沐浴，附近的林間步道可享受森林浴並兼賞鳥。羅東林管處在此設有仁澤山莊提供住宿，設施包括跨越多望溪的鳩澤橋、煮蛋區外圍植栽美化、戶外溫泉SPA池和室內溫泉檜木桶湯屋。",
            "Address": "宜蘭縣大同鄉燒水巷25號 ",
            "Tel": "\r\n03-9809806",
            "Figure": "fig/TGE-3202-YilanResort-24.jpg",
            "Link": "https://travel.yilan.tw/zh-tw/attraction/details/380"
        },
        {
            "No": "25",
            "Name": "武荖坑風景區",
            "Category": "宜蘭",
            "Area": "蘇澳鎮",
            "Description": "武荖坑溪屬於新城溪水域，河道在此地進入平原，展現出山水交融之風光，昔稱「武荖林泉」，屬「新蘭陽八景」的名勝。武荖坑兩岸坡地氣候適於茶作，武荖茶清香甜美，盛名遠播。區內林木蒼鬱，溪間可見苦花、溪哥、毛蟹等於潺潺溪水中悠然自得。",
            "Address": "\r\n宜蘭縣蘇澳鎮武荖坑路75號 ",
            "Tel": "\r\n03-9952852",
            "Hours": "\r\n08:00-22:00",
            "Figure": "fig/TGE-3202-YilanResort-25.jpg",
            "Link": "https://travel.yilan.tw/zh-tw/attraction/details/3"
        },
        {
            "No": "26",
            "Name": "內埤海灘",
            "Category": "宜蘭",
            "Area": "蘇澳鎮",
            "Description": "從南方澳人口中「內埤仔」內埤漁港，往港旁高起的學府路往內走去，豁然在眼前出現一灣海岸，在山嵐與海洋的裹覆下顯的寧靜宜人，這裡就是南方澳居民的私家海灣「內埤海灣」。",
            "Address": "\r\n宜蘭縣蘇澳鎮內埤路(北濱公園旁) ",
            "Tel": "\r\n03-9973421",
            "Hours": "全天候",
            "Figure": "fig/TGE-3202-YilanResort-26.jpg",
            "Link": "https://travel.yilan.tw/zh-tw/attraction/details/8"
        },
        {
            "No": "30",
            "Name": "國立傳統藝術中心",
            "Category": "宜蘭",
            "Area": "五結鄉",
            "Description": "位於宜蘭冬山河風景區內的傳統藝術中心，在2017年新增迷霧森林、魚耀隧道等裝置藝術，是個適合闔家大小，一同享受文化之旅的景點。\r\n<br><br>\r\n走進了傳藝中心的園區，彷彿掉進了時光隧道，紅牆黑瓦的街道，融入台灣各地老街的建築風格，街道兩旁設立各種工坊、早期台灣雜貨店等特色店家，在這裡可以看見捏麵人、糖蔥、童玩、布袋戲偶……那些令人想起童年樂趣的東西。\r\n <br><br>\r\n逛街逛到累了，可以帶著孩子們到親子園區遊玩、放鬆休息，或是吃個台灣特色美食，補充失去的熱量，亦或是到演藝廳坐在台下欣賞戲團的表演，聽著高亢婉轉地唱調，沉浸在其中，因為那逐漸消失的藝術，是文化的傳承。",
            "Address": "\r\n宜蘭縣五結鄉季新村五濱路二段201號 ",
            "Tel": "\r\n03-9508859",
            "Hours": "9:00-18:00\r\n9:00-20:00(7月、8月)",
            "Figure": "fig/TGE-3202-YilanResort-30.jpg",
            "Link": "https://travel.yilan.tw/zh-tw/attraction/details/231"
        }
    ]