[
        {
            "NO": "001",
            "Name": "里海咖啡",
            "Category": "宜蘭",
            "Area": "礁溪",
            "Type": "海鮮&日本料理",
            "Description": "位於礁溪的「里海咖啡」，以木頭與綠色植栽妝點外觀，低調樸實、質感獨具，店門口呈現出質感中帶點小清新的風格。「里海café」是宜蘭超人氣好評餐廳(Google 4.0/1089則評論)，主要供應新鮮魚貨的定食與特色飲料、咖啡。",
            "Address": "宜蘭縣礁溪鄉和平路112-120",
            "Tel": "03 987 1213",
            "Hours": "11:30 - 15:00 、 17:30 - 19:30",
            "Figure": "fig/TGE-5201-YilanRestaurant-01.jpg",
            "Link": "https://www.facebook.com/satomi.yilan/"
        },
        {
            "NO": "002",
            "Name": "初物輕懷石料理",
            "Category": "宜蘭",
            "Area": "宜蘭市",
            "Type": "海鮮&日本料理",
            "Description": "「初物輕懷石料理」以征服日本人味蕾的好手藝，加上時令的在地海鮮魚貨及頂級食材，開幕才不久就在宜蘭精緻日式料理界打響名號並獲得好評推薦。",
            "Address": "宜蘭市公園路489號 268",
            "Tel": "\r\n03 925 5860",
            "Hours": "12:00 - 14:30 、 17:30 - 21:00",
            "Figure": "fig/TGE-5201-YilanRestaurant-02.jpg",
            "Link": "https://www.facebook.com/hatumono.taiwan/"
        },
        {
            "NO": "003",
            "Name": "鮮靚海鮮餐廳",
            "Category": "宜蘭",
            "Area": "宜蘭市",
            "Type": "海鮮&日本料理",
            "Description": "宜蘭熱門的「鮮靚海鮮餐廳」，以平價的海鮮、快炒聞名，農曆過年期間的桌菜＄6000餘元，多樣豐盛、C/P值高。",
            "Address": "宜蘭縣宜蘭市東津路20之56號",
            "Tel": "03 925 1800",
            "Figure": "fig/TGE-5201-YilanRestaurant-03.jpg",
            "Link": "https://www.facebook.com/pages/category/Taiwanese-Restaurant/%E9%AE%AE%E9%9D%9A%E6%B5%B7%E9%AE%AE-184263078263724/"
        },
        {
            "NO": "004",
            "Name": "伍參港海廚料理",
            "Category": "宜蘭",
            "Area": "頭城鎮",
            "Type": "無菜單料理",
            "Description": "嚴選食材、原味烹調、用心經營的「伍参港海廚料理」，主打健康天然的食材與風味，是宜蘭無菜單料理餐廳中，美味精緻且特色獨具的推薦。",
            "Address": "宜蘭縣頭城鎮濱海路二段70號",
            "Tel": "0979-604-467",
            "Figure": "fig/TGE-5201-YilanRestaurant-04.jpg",
            "Link": "https://wusharbour.wixsite.com/seafood/booking"
        },
        {
            "NO": "005",
            "Name": "大洲魚寮",
            "Category": "宜蘭",
            "Area": "三星鄉",
            "Type": "無菜單料理",
            "Description": "想要同時品味宜蘭招牌的無菜單料理、新鮮海產的饕客，可以試試三星知名的「大洲魚寮海鮮‧燒物」。",
            "Address": "宜蘭縣三星鄉上將路二段888號",
            "Tel": "03 955 9110",
            "Hours": "\r\n11:30 - 14:00 、 17:30 - 21:00",
            "Figure": "fig/TGE-5201-YilanRestaurant-05.jpg",
            "Link": "https://www.facebook.com/dacho.seafood/"
        },
        {
            "NO": "006",
            "Name": "農夫的店",
            "Category": "宜蘭",
            "Area": "羅東鎮",
            "Type": "無菜單料理",
            "Description": "宜蘭熱門的新興無菜單料理餐廳「農夫的店」，是以當天現撈魚貨為主要食材，每人$800起可大啖生魚片、甜蝦、烤黑喉、牛排等新鮮豐富佳餚，是海鮮控不容錯過的選擇。\r\n",
            "Address": "羅東鎮公正路515號1樓 ",
            "Tel": "0975 230 923",
            "Hours": "11:30 - 14:30 、 18:00 - 23:55",
            "Figure": "fig/TGE-5201-YilanRestaurant-06.jpg",
            "Link": "https://www.facebook.com/pages/category/Theme-Restaurant/%E8%BE%B2%E5%A4%AB%E7%9A%84%E5%BA%97-1624161431207953/"
        },
        {
            "NO": "007",
            "Name": "饗宴互動式鐵板燒",
            "Category": "宜蘭",
            "Area": "五結鄉",
            "Type": "鐵板燒&燒烤",
            "Description": "結合海鮮、無菜單的「饗宴互動式鐵板燒」是宜蘭知名的高級餐廳，也是網路、報章媒體推薦必吃的豪華料理經典代表",
            "Address": "宜蘭縣五結鄉溪濱路二段263號",
            "Tel": "03 960 1777",
            "Hours": "11:00–21:00",
            "Figure": "fig/TGE-5201-YilanRestaurant-07.jpg",
            "Link": "https://www.facebook.com/pages/category/Teppanyaki-Restaurant/%E9%A5%97%E5%AE%B4%E9%90%B5%E6%9D%BF%E7%87%92-292892184092736/"
        },
        {
            "NO": "008",
            "Name": "晶饌鐵板創料理",
            "Category": "宜蘭",
            "Area": "冬山鄉",
            "Type": "鐵板燒&燒烤",
            "Description": "「晶饌鐵板創料理」嚴選食材、用心烹調，是一間物美價實的無菜單鐵板燒",
            "Address": "宜蘭縣冬山鄉柯林村安農一路96號",
            "Tel": "03 957 7339",
            "Hours": "AM 11:30～PM 14:00 ‧ PM 17:30～PM 21:00",
            "Figure": "fig/TGE-5201-YilanRestaurant-08.jpg",
            "Link": "http://teppanyaki168.com/"
        },
        {
            "NO": "009",
            "Name": "滿山望海",
            "Category": "宜蘭",
            "Area": "頭城鎮",
            "Type": "咖啡廳",
            "Description": "頭城最近最最熱門的咖啡廳 就是滿山望海了吧！位於頭城的海邊，望出去就是龜山島。坐在室內吹冷氣, 就有大片落地玻璃窗可以眺望海景。雖然限時2小時，但風景真的好美啊！",
            "Address": "宜蘭縣頭城鎮大坑路197巷2號",
            "Tel": "03 977 6788",
            "Hours": "12:00-19:00",
            "Figure": "fig/TGE-5201-YilanRestaurant-09.jpg",
            "Link": "https://www.facebook.com/mansiontaiwan.toucheng/"
        },
        {
            "NO": "010",
            "Name": "空ㄟ農場",
            "Category": "宜蘭",
            "Area": "礁溪鄉",
            "Type": "咖啡廳",
            "Description": "空ㄟ農場能欣賞遼闊的蘭陽平原夜景, 園區佔地寬敞，浪漫氣氛圍繞整座咖啡館.夜裡點燈，再搭配一望無際的百萬夜景更夢幻. 館內提供手作窯烤PIZZA、焗烤系列和鬆餅. 來訪能用餐、輕鬆午茶，也能小酌一杯",
            "Address": "宜蘭縣礁溪鄉白雲村白石腳路157巷31號",
            "Tel": "0912 089 795",
            "Hours": "15:00 - 23:00",
            "Figure": "fig/TGE-5201-YilanRestaurant-10.jpg",
            "Link": "https://www.facebook.com/kongpizzacafe/"
        },
        {
            "NO": "011",
            "Name": "蒔花咖啡",
            "Category": "宜蘭",
            "Area": "礁溪鄉",
            "Type": "咖啡廳",
            "Description": "最近在宜蘭礁溪最火紅的咖啡館就是『蒔花 DailyBlossom Cafe & More』，吸引許多網美前往朝聖，這也是由知名咖啡館黑宅團隊全新打造的最新力作，位於田間小路如果沒認真找真的很容易錯過，最令人訝異的應該是營業時間未到就已經有許多人在門口排隊，目前沒有開放訂位，只能現場排隊。",
            "Address": "宜蘭縣礁溪鄉十六結路23-17號",
            "Tel": "03 988 7228",
            "Hours": "10:00 - 17:00",
            "Figure": "fig/TGE-5201-YilanRestaurant-11.jpg",
            "Link": "https://www.facebook.com/%E8%92%94%E8%8A%B1-DailyBlossom-Cafe-More%E6%9C%AA%E6%8F%90%E4%BE%9B%E9%A0%90%E7%B4%84-108717630739900/"
        },
        {
            "NO": "012",
            "Name": "斑比山丘",
            "Category": "宜蘭",
            "Area": "冬山鄉",
            "Type": "咖啡廳",
            "Description": "斑比山丘 Bambi Land，位在宜蘭冬山，距離梅花湖風景區約5分鐘車程，眾所期盼的小鹿奇幻國度，在今年六月初開始試營運，可以近距離接觸與餵食小鹿，小鹿們都相當親人，適合親子或情侶到此遊玩，終於不用特地跑到墾丁鹿境或者日本奈良了，園區內有美美子みみこ咖啡的進駐，和小鹿們玩累了就坐下來喝咖啡吃甜點，而假日人潮眾多，若不想現場排隊，多利用線上預約的方式唷",
            "Address": "宜蘭縣冬山鄉下湖路285號",
            "Tel": "0968 266 199",
            "Hours": "\r\n10:00 - 17:00",
            "Figure": "fig/TGE-5201-YilanRestaurant-12.jpg",
            "Link": "https://booking.menushop.tw/bambiland"
        },
        {
            "NO": "013",
            "Name": "香草菲菲",
            "Category": "宜蘭",
            "Area": "員山鄉",
            "Type": "咖啡廳",
            "Description": "有人說「味道是一種記憶」，許多人小時候都有在媽媽、阿嬤身旁聞到一股淡淡花香味的經驗，你想知道她們藏在衣袋裡自然飄香氣的秘密嗎?這股記憶中的香味，是童年的味道，更是思念的味道…。\r\n什麼花，讓你想起了誰？什麼味道，憶起了曾經的記憶呢？尋找屬於你的幸福香味，香草菲菲與您一起開啟幸福的窗。",
            "Address": "宜蘭縣員山鄉內城路650號",
            "Tel": "03 922 9933",
            "Hours": "09:00 - 18:00",
            "Figure": "fig/TGE-5201-YilanRestaurant-13.jpg",
            "Link": "http://artemisgarden10103.incdoor.com/"
        }
    ]