[
        {
            "No": "01",
            "Name": "清水斷崖",
            "Category": "花蓮",
            "Area": "秀林鄉",
            "Description": "清水斷崖，位於和平和崇德之間，是臺灣東岸的一大奇景，更是臺灣八大景之一。清水斷崖高一千多公尺，以極近90度的角度緊臨太平洋，公路綿延20多公里，蜿蜒曲折，一邊是懸崖峭壁，一邊是茫茫大海，形勢險峻，氣象萬千，令人膽戰心驚，嘆為觀止。而在蘇花公路的崇德隧道旁，有步道通往兩個觀景臺，可將太平洋及清水斷崖的山光水色盡入眼簾。途中更有北方澳、南方澳及烏石鼻等多個風景點讓你選擇。",
            "Address": "花蓮縣新城鄉",
            "Tel": "03-862-1100",
            "Figure": "fig/TGE-3302-HualienResort-01.jpg",
            "Link": "https://www.taiwan.net.tw/m1.aspx?sNo=0001124&id=2228"
        },
        {
            "No": "02",
            "Name": "崇德瑩農場",
            "Category": "花蓮",
            "Area": "秀林鄉",
            "Description": "私人農場，農場內專營：露營車、露營地、獨木舟、飛行傘、風味餐、下午茶、沙灘車、咖啡。",
            "Address": "花蓮縣秀林鄉崇德村下台地立霧溪旁",
            "Tel": "0963-708807",
            "Figure": "fig/TGE-3302-HualienResort-02.jpg",
            "Link": "https://taiwantour.info/hualien-ranch/"
        },
        {
            "No": "03",
            "Name": "翡翠谷",
            "Category": "花蓮",
            "Area": "秀林鄉",
            "Description": "位在秀林鄉銅門村的翡翠谷有著與慕谷慕魚相似的藍綠水色，成為夏天當地人與遊客前往戲水的純天然景點。\r\n<br><br>\r\n要進入翡翠谷前，要先穿越翡翠谷隧道，因為伸手不見五指，記得攜帶手電筒照明，經過隧道時仔細觀察，能看見隧道上方吊掛蝙蝠。",
            "Address": "花蓮縣秀林鄉銅門村榕樹路，銅門大橋旁",
            "Tel": "03-8642157",
            "Figure": "fig/TGE-3302-HualienResort-03.jpg",
            "Link": "http://tour-hualien.hl.gov.tw/POI/151"
        },
        {
            "No": "04",
            "Name": "太魯閣國家公園",
            "Category": "花蓮",
            "Area": "秀林鄉",
            "Description": "太魯閣國家公園成立於民國75年（西元1986年），橫跨花蓮、南投及臺中。\r\n\r\n太魯閣國家公園以雄偉壯麗、幾近垂直的大理岩峽谷景觀聞名。沿著立霧溪的峽谷風景線而行，觸目所及皆是壁立千仞的峭壁、斷崖、峽谷、連綿曲折的山洞隧道、大理岩層和溪流等風光。\r\n<br><br>\r\n四百萬年前，菲律賓海洋板塊與歐亞大陸板塊碰撞而成臺灣，慢慢隆起的中央山脈表層岩層受到風化侵蝕作用而剝離，大理岩因而露出地表。這些大理岩受到立霧溪長期侵蝕下切作用與地殼不斷隆起上升，形成幾乎垂直的峽谷。公園內巨峰林立，從清水到南湖大山頂，落差達3,742公尺，造就了層次複雜的植物林相，並提供野生動物棲息活動的空間。\r\n<br><br>\r\n瀑布是太魯閣國家公園重要的景觀，從太魯閣口到文山間，瀑布相當多，最著名的要屬白楊瀑布、銀帶瀑布、長春瀑布、綠水瀑布等，還有許多不知名的小流瀑。\r\n<br><br>\r\n燕子口和九曲洞，是太魯閣峽谷最讓人心動的自然奇觀，也是峽谷最窄的兩段，臨溪側闢有人行步道供遊客漫步欣賞。燕子口對岸大理石峭壁上可見到許多小洞穴，每當春夏之際，常有小雨燕和洋燕在峭壁間穿梭鳴唱，或在洞穴內築巢，故而得名燕子口。而九曲洞「如腸之迴、如河之曲」的隧洞景觀，遊客可沿迴轉曲折的半明半暗路線欣賞峽谷風光。",
            "Address": "花蓮縣秀林鄉富世村富世291號",
            "Tel": "03-862-1100~6",
            "Figure": "fig/TGE-3302-HualienResort-04.jpg",
            "Link": "https://www.taiwan.net.tw/m1.aspx?sNo=0001124&id=R43"
        },
        {
            "No": "05",
            "Name": "七星潭",
            "Category": "花蓮",
            "Area": "新城鄉",
            "Description": "位在花蓮市區東北方，位於花蓮市新城鄉的北埔村，可取道美崙工業區，由花蓮師院（現為「國立東華大學美崙校區」）前指標前行即可到達。此地海灘呈一優美的弧形海灣，海水潔淨湛藍，黑石晶瑩剔透，在此可遠眺青山蒼鬱，公路綿延。\r\n<br><br>\r\n七星潭富有詩意的名稱，據說是位於花蓮師範學院和花蓮機場一帶，早年有零星湖泊散佈，後來因建設需要而填實。現在一般稱七星潭，是指美崙工業區和花蓮機場以北的地區，有斷層形成的海峽與優美的弧形海灣，具有豐富的自然人文景觀。在七星潭，可以遠眺清水斷崖，夜間還可以欣賞新城和崇德地區的燈火，區內更有許多景點，提供休憩和知性之旅。\r\n<br><br>\r\n七星潭風景區以自行車道為動脈，從花蓮市南濱公園、經花蓮港、四八高地到七星潭風景區，長達21公里的旅程有不同的風光。花蓮縣政府更興建了石雕園區、賞星廣場、觀日樓、兒童遊樂場等休憩設施，在漁場附近還有海生態的解說牌，也利用防風林區闢建海濱植物園區，動植物生態非常豐富，來一趟知性之旅絕對不虛此行。",
            "Address": "：花蓮縣新城鄉海岸路",
            "Tel": "03-822-1592",
            "Figure": "fig/TGE-3302-HualienResort-05.jpg",
            "Link": "https://www.taiwan.net.tw/m1.aspx?sNo=0001124&id=9488"
        },
        {
            "No": "06",
            "Name": "四八高地",
            "Category": "花蓮",
            "Area": "新城鄉",
            "Description": "四八高地位於七星潭南方，因海拔標高 48 公尺而得名，是一片在板塊運動推擠作用下所產生的平坦高地，舊名「美崙鼻」，此區過去曾是軍事用地，現規劃為自行車道及環保公園；站在四八高地上可以居高臨下、視野極佳，擁有 180 度無遮蔽的環景視角，將七星潭月牙灣的海岸線和太平洋一望無際的湛藍盡收眼底。",
            "Address": "花蓮縣花蓮市海岸路、華東路交界旁",
            "Tel": "03-8227171",
            "Hours": "全天24小時",
            "Figure": "fig/TGE-3302-HualienResort-06.jpg",
            "Link": "http://mambo.hl999.url.tw/"
        },
        {
            "No": "07",
            "Name": "東大門夜市",
            "Category": "花蓮",
            "Area": "花蓮市",
            "Description": "位在花蓮市六期重劃區，圍繞著陽光電城的兩橫一直的夜市路徑，包括福町夜市、各省一條街、以及原住民一條街。超過四百個攤位，從2015年夏天開始，便以各式精彩的小吃、遊戲與表演陣容打響了在花蓮觀光旅遊的名氣，不論在地民眾、各地的觀光客，到花蓮，都少不了要到東大門夜市走一趟，體驗這裡的各式小吃。\r\n<br><br>\r\n從2015年年底開始，更加入了自強夜市的新區塊，數十個原本自強夜市的攤商已正式進入，形成了繼福町夜市、原住民一條街與各省一條街之外的第四個區塊。其中多家攤商，都是在花蓮地區享有極高人氣的老字號，更吸引不少饕客與忠實顧客，準時到夜市來報到，讓原本就已相當熱鬧的東大門夜市，增添更多的人氣。",
            "Address": "\r\n花蓮市中山路50號",
            "Tel": "\r\n0977-690913",
            "Figure": "fig/TGE-3302-HualienResort-07.jpg",
            "Link": "http://tour-hualien.hl.gov.tw/POI/205"
        },
        {
            "No": "08",
            "Name": "松園別館",
            "Category": "花蓮",
            "Area": "花蓮市",
            "Description": "松園別館舊名為花蓮港陸軍兵事部，建於西元1943年，當時為日軍在花蓮最高軍事指揮中心，又因園內松樹繁茂，環境十分清幽，且地勢居高臨下，同時可遠眺花蓮港及太平洋，成為當時高級軍官的休憩場所。園區至民國92年（西元2003年）開園至今，呈現另一種與市民共享的歷史風貌，規劃觀海平臺、木棧步道、藝文空間，並邀請藝術家進駐，定期辦理松園主題活動，成為具備生態、藝術、人文歷史的多元空間。",
            "Address": "花蓮縣花蓮市松園街65號",
            "Tel": "03-835-6510",
            "Hours": "週一至週日09:00~18:00、每月第二個星期二以及除夕休館",
            "Figure": "fig/TGE-3302-HualienResort-08.jpg",
            "Link": "https://www.taiwan.net.tw/m1.aspx?sNo=0001124&id=A12-00294"
        },
        {
            "No": "09",
            "Name": "花蓮文創園區",
            "Category": "花蓮",
            "Area": "花蓮市",
            "Description": "由百年舊酒廠改建而成的花蓮文化創意產業園區，為臺灣五大文創園區之一，原有舊酒廠第二次世界大戰時遭損毀，經修復後於民國100年（西元2011年）對外開放。3.3公頃的面積涵蓋26棟老倉庫，保留日式檜木與水泥建築風格，規劃展演、特色餐飲、文創商品等藝文空間，假日更不定期舉辦市集與展覽。",
            "Address": "花蓮縣花蓮市中華路144號",
            "Tel": "03-831-3777#203",
            "Hours": "服務中心週一至週日09:00~21:00",
            "Figure": "fig/TGE-3302-HualienResort-09.jpg",
            "Link": "https://www.taiwan.net.tw/m1.aspx?sNo=0001124&id=A12-00295"
        },
        {
            "No": "10",
            "Name": "貨櫃星巴克",
            "Category": "花蓮",
            "Area": "吉安鄉",
            "Description": "洄瀾門市是首間也是亞洲首間以「貨櫃」打造的貨櫃屋門市，建築外觀由建築大師隈研吾設計，以曾駐足過紐約、巴爾的摩、馬賽、巴塞隆納等世界各大城市碼頭的 29 個貨櫃為主體堆疊打造出倒金字塔型的四層建築，賦予貨櫃新生命。\r\n<br><br>\r\n貨櫃交疊的鏤空處以大面積的採光天窗，讓日光層層灑落，有如陽光穿透樹林般，在徜徉自然中啜飲咖啡，呼應了花蓮作為大自然特別眷顧的地方特色，享受獨一無二的星巴克體驗。",
            "Address": "花蓮縣吉安鄉南濱路一段 505 號",
            "Tel": "03-8420014",
            "Hours": "週一至週六 09:00-18:00，週日與國定假日除外",
            "Figure": "fig/TGE-3302-HualienResort-10.jpg",
            "Link": "https://www.starbucks.com.tw/stores/special/stores_special_hualienbay.jspx"
        },
        {
            "No": "11",
            "Name": "慶修院",
            "Category": "花蓮",
            "Area": "吉安鄉",
            "Description": "吉安慶修院，原名為真言宗吉野布教所，為臺灣現存最完整的日式寺院，日治時期日人在此設立移民村，成為移民的宗教信仰中心，藉此撫慰思鄉之情。木造建築經整修與人文精神重建後，散發濃濃的江戶風格，院內保留不動明王、八十八尊石佛、百度石等珍貴文物，並附設展售區，提供餐飲及浴衣體驗，讓旅客真切感受日式風情的禪意。",
            "Address": "花蓮縣吉安鄉吉安村中興路345-1號",
            "Tel": "03-853-5479",
            "Hours": "週二至週日08:30~17:00",
            "Figure": "fig/TGE-3302-HualienResort-11.jpg",
            "Link": "https://www.taiwan.net.tw/m1.aspx?sNo=0001124&id=A12-00292"
        },
        {
            "No": "12",
            "Name": "遠雄海洋公園",
            "Category": "花蓮",
            "Area": "壽豐鄉",
            "Description": "臺灣首創海洋生態互動式主題樂園，在占地10公頃的主題樂園區部分，目前計有入口廣場、海洋村、海遊館、鯊魚館、海獅生態公園、海豚生態公園、海豚同遊池、海獅餵養池、嘉年華大街、水上樂園、機械樂園、兒童王國、夢幻水晶城堡等遊樂設施，園區並有空中纜車及電扶梯戴送遊客，整個園區整體建築以19世紀英國碼頭及海岸嘉年華風格為主，並融合先進的水族館設計概念，將生態環境與海洋展示結合。\r\n<br><br>\r\n在占地19公頃的自然景觀公園區部分，遊客可從主題樂園徒步或搭空中纜車遊覽，整個園區位於主體樂園與渡假酒店之間，海拔約100公尺至200公尺，全區規劃有鳥園、Green House、結婚廣場、棕櫚園區、熱帶雨林區、沙漠植物園區及溫帶常綠園區。遊客除了海洋公園之外，可以結合鄰近的遠來飯店、理想大地渡假村、花東縱谷、太魯閣等觀光景點，進行更豐富的東海岸之旅。",
            "Address": "花蓮縣壽豐鄉鹽寮村福德189號",
            "Tel": "03-812-3100",
            "Figure": "fig/TGE-3302-HualienResort-12.jpg",
            "Link": "https://www.taiwan.net.tw/m1.aspx?sNo=0001124&id=9687"
        },
        {
            "No": "13",
            "Name": "鯉魚潭",
            "Category": "花蓮",
            "Area": "壽豐鄉",
            "Description": "鯉魚潭位於花蓮縣壽豐鄉，面積約104公頃，是花蓮縣境內最大的內陸湖泊，潭面呈南北長東西窄的橢圓形，面積因四季水量榮枯而互有消長，並因潭東的鯉魚山而得名。潭四周築有環湖公路，全程4公里，徒步1小時即可走完。\r\n\r\n遊人可在此露營、野餐、遊湖。天候佳時，潭東的鯉魚山會聚集飛行傘活動愛好者，駕馭鮮麗的飛行傘翱翔於山巔水湄間，平添山光水色。",
            "Address": "花蓮縣壽豐鄉池南村環潭北路100號",
            "Tel": "03-864-1691",
            "Hours": "遊客中心週一至週日08:30~17:30",
            "Figure": "fig/TGE-3302-HualienResort-13.jpg",
            "Link": "https://www.taiwan.net.tw/m1.aspx?sNo=0001124&id=3"
        },
        {
            "No": "14",
            "Name": "理想大地",
            "Category": "花蓮",
            "Area": "壽豐鄉",
            "Description": "花蓮理想大地渡假飯店以「理想的渡假是停留，不是奔波，是散步，不是趕路」定位，創新規劃運河式渡假村，入選全球旅館業矚目的國際專刊《100 Hotels + Resorts》，被美譽為提升心靈之地，亞洲區共入選Grand Hyatt Bali、Hilton Sanya Resort等29間頂級飯店，理想大地則是台灣唯一獲選。\r\n<br><br>\r\n由世界排名第一的國際建築設計團隊W.A.T.&G.打造，獨創全球飯店最長的2.2公里人工運河，貫穿園區，沿途經過7座碼頭、16座風情橋樑及22棟別墅景觀建築。一棟棟西班牙低樓層城堡沿著河岸而築，以西班牙傳奇建築師「高第」的建築理念為基礎，結合拜占庭和摩爾式風格，為建築添加柔和曲線與童話氣息，成功與當地自然風景相互交融，創造全球獨家的原創建築風格。旅客可搭遊艇在運河上欣賞兩旁景色、蟲鳴鳥叫，以及16座橋的特色風光。",
            "Address": "花蓮縣壽豐鄉共和村1鄰理想路1號",
            "Tel": "03-8656789",
            "Figure": "fig/TGE-3302-HualienResort-14.jpg",
            "Link": "https://www.erv-nsa.gov.tw/zh-tw/accommodation/detail/4034"
        },
        {
            "No": "15",
            "Name": "雲山水",
            "Category": "花蓮",
            "Area": "壽豐鄉",
            "Description": "雲山水生態園區為私人土地，夢幻湖也是由人工開鑿而成，如詩如畫的美景雖讓這裡成為觀光勝地，目開也開放讓民眾參觀，但園區內還是有許多私人住宅及土地是不對外開放的，前來享受美景的同時，別忘了輕聲細語及尊重當地居民的隱私，園區車輛禁止進入。\r\n<br><br>\r\n雲山水自然生態農莊位於花蓮壽豐鄉，花東縱谷中央山脈及海岸山脈之間，占地約24公頃，其中夢幻湖面積大約4公頃，清澈可見裡面的小魚，自然而然的也吸引到許多候鳥、鳥群到這裡來覓食、定居，園區的生態系統就變得更加多元、縝密；此外，園區四周種植了多種棕櫚科樹木，以及依照季節性開花的植物、闊葉林等等，故一年四季的景色都不大相同，每個季節都有特別迷人的地方，這裡同時也是許多攝影愛好者，爭相取景的地方呢！",
            "Address": "\r\n花蓮縣壽豐鄉豐坪路二段2巷201弄18號",
            "Tel": "\r\n03-8656060",
            "Figure": "fig/TGE-3302-HualienResort-15.jpg",
            "Link": "https://tour-hualien.hl.gov.tw/POI/150"
        },
        {
            "No": "16",
            "Name": "東華大學",
            "Category": "花蓮",
            "Area": "壽豐鄉",
            "Description": "東華大學西依巍峨的中央山脈，東臨連綿不絕的海岸山脈，諾大的校區擁有青青草地、歐式風格的建築與三座絕美的湖畔──小華湖、華湖及東湖，其中以東湖最富盛名，波光瀲灩的湖景搭配歐風建築和遠方蒼綠的山巒，宛若明信片上的風景，成為旅人或新人拍婚紗照的經典拍攝地，而遼闊的草地更是毛小孩追逐嬉戲的天堂。",
            "Address": "花蓮縣壽豐鄉大學路二段一號",
            "Tel": "03-8903000",
            "Figure": "fig/TGE-3302-HualienResort-16.jpg",
            "Link": "https://www.erv-nsa.gov.tw/zh-tw/attractions/detail/210"
        },
        {
            "No": "17",
            "Name": "立川漁場",
            "Category": "花蓮",
            "Area": "壽豐鄉",
            "Description": "位在壽豐的立川漁場，利用天然湧泉養殖體型飽滿、味道鮮美的黃金蜆，並設立了文化生態館、蜆之館、體驗池、餐廳等，不僅能夠讓人認識黃金蜆的一生、養殖的過程之外，還能親自下水體驗「摸蜊仔兼洗褲」的樂趣，餵食養殖的魚群，是一個非常受歡迎的親子同樂的景點。",
            "Address": "花蓮縣壽豐鄉共和村魚池路45號",
            "Tel": "03-8651333",
            "Hours": "08:30 – 19:00",
            "Figure": "fig/TGE-3302-HualienResort-17.jpg",
            "Link": "http://www.lichuan.tw/enjoy.html"
        },
        {
            "No": "18",
            "Name": "山度空間",
            "Category": "花蓮",
            "Area": "壽豐鄉",
            "Description": "\r\n\r\n     \r\n美到爆炸的花蓮山度空間是現在最夯的花蓮IG打卡景點，特色帳篷小木屋、水晶球盪鞦韆再搭配太平洋無敵海景給妳當背景怎樣都美拍，而且山度空間門票也很便宜，平日免費無低消；星期五六日入場也只要50元，還可折抵山度空間菜單的餐點消費相當佛心，另外山度空間旁邊就是花蓮遠雄海洋公園，以及另一個花蓮熱門景點海崖谷，放一起規劃花蓮一日遊剛剛好。",
            "Address": "花蓮縣壽豐鄉57號 ",
            "Tel": "0963 034 304",
            "Hours": "09:30 - 17:00",
            "Figure": "fig/TGE-3302-HualienResort-18.jpg",
            "Link": "https://www.facebook.com/mountain059"
        },
        {
            "No": "19",
            "Name": "海崖谷",
            "Category": "花蓮",
            "Area": "壽豐鄉",
            "Description": "海崖谷 HAYAKU\r\n花蓮孩子建造的秘密基地, 東海岸與中央山脈的平行處\r\n日文中的Hayaku意味著早點、快一點, 快帶著家人朋友來到後山，體驗放鬆自在的露營\r\n在海崖谷讓我們一起放下快節奏的生活、享受慢遊",
            "Address": "花蓮縣壽豐鄉鹽寮村大坑51-5號",
            "Tel": "03-8671314",
            "Figure": "fig/TGE-3302-HualienResort-19.jpg",
            "Link": "https://hayaku.com.tw/"
        },
        {
            "No": "20",
            "Name": "山姆先生咖啡館",
            "Category": "花蓮",
            "Area": "壽豐鄉",
            "Description": "Mr. Sam山姆先生咖啡館座落台9線226.5K，本來這塊空地上有兩間老平房，經過老闆巧思規劃，將這兩間老屋打造成童話故事裡的奇幻屋，因為造型特殊又在公路邊，去年施工時就引起熱烈討論，吸引許多網紅、遊客專程來打卡。",
            "Address": "花蓮縣壽豐鄉樹湖村樹湖20號",
            "Tel": "03-8656-518",
            "Hours": "11:00－17:00（週四公休）",
            "Figure": "fig/TGE-3302-HualienResort-20.jpg",
            "Link": "https://www.facebook.com/mr.sam970/"
        },
        {
            "No": "21",
            "Name": "光復糖廠",
            "Category": "花蓮",
            "Area": "光復鄉",
            "Description": "花蓮觀光糖廠早期為東部重要的製糖工廠，民國91年停工後轉型成為觀光糖廠，近年積極經營園區觀光特色，結合導覽解說活動、日式木屋、風味餐、糖廠冰品、台糖農特產品、地方特色商品等，提供遊客住、食、遊、玩的豐富體驗。\r\n\r\n花蓮觀光糖廠位於觀光資源豐富的花蓮縣光復鄉內，在花東縱谷的環繞下，周遭富含多處著名好玩的景點如太巴塱部落、馬太鞍休閒農業區、豐年祭、大農大富森林園區螢火蟲季、富源森林遊樂區、瑞穗泛舟、瑞穗牧場、赤柯山金針花海等，一年四季到訪皆有不同感受，是大人小孩全家遊玩的最佳地點!!",
            "Address": "花蓮縣光復鄉大進村糖廠街19號",
            "Tel": "03-8705881",
            "Figure": "fig/TGE-3302-HualienResort-21.jpg",
            "Link": "http://www.hualiensugar.com.tw/"
        },
        {
            "No": "22",
            "Name": "瑞穗牧場",
            "Category": "花蓮",
            "Area": "瑞穗鄉",
            "Description": "以鮮奶暢銷到全臺各地的瑞穗牧場，有著餐飲部、露天咖啡座等設施，來到這裡不僅可喝到產地現榨、現煮的鮮奶，還能看見成群的乳牛或鴕鳥悠閒漫步在草地上，與孩子一起拿牧草親手餵食牠們，而遼闊的園區可以讓小朋友盡情玩耍、跑跳，是個適合親子同遊的景點。",
            "Address": "花蓮縣瑞穗鄉舞鶴村6鄰157號",
            "Tel": "03-8876611",
            "Hours": "08:00 – 18:00",
            "Figure": "fig/TGE-3302-HualienResort-22.jpg",
            "Link": "https://www.erv-nsa.gov.tw/zh-tw/attractions/detail/48"
        },
        {
            "No": "23",
            "Name": "吉蒸牧場",
            "Category": "花蓮",
            "Area": "瑞穗鄉",
            "Description": "來到鮮奶產地的瑞穗，當然不容錯過到牧場品嘗鮮榨牛奶的滋味！在瑞穗共有兩間牧場，一處是廣為人知的瑞穗牧場，另一處便是位在秀姑巒溪泛舟遊客中心旁的吉蒸牧場，園區內擁有販售部、餐廳、可愛動物園區，少了一分喧囂氣息的牧場，讓旅人可以多享受一份清淨，靜靜遠眺秀姑巒溪，或是在溪畔旁漫步。",
            "Address": "花蓮縣瑞穗鄉中山路三段230號",
            "Tel": "03-8875588",
            "Hours": "08:00 – 17:30",
            "Figure": "fig/TGE-3302-HualienResort-23.jpg",
            "Link": "https://www.erv-nsa.gov.tw/zh-tw/attractions/detail/204"
        },
        {
            "No": "24",
            "Name": "秀姑巒溪泛舟",
            "Category": "花蓮",
            "Area": "瑞穗鄉",
            "Description": "說到花東地區的水域活動，最具知名度也最刺激的非「秀姑巒溪泛舟」莫屬了。在民國70年代，秀姑巒溪就已成為國內泛舟活動的首選之地。每到夏天泛舟旺季，從瑞穗大橋至長虹橋，全程24公里的泛舟河段上，只見一艘艘紅艷艷的橡皮艇將整段河道妝點得綺麗動人。20多處難度不一的激流與險灘，帶給泛舟遊客充滿驚險與刺激的難忘旅遊經驗，而秀姑巒溪沿途的峽谷與奇岩等自然美景，無不烙印在泛舟客的心頭，久久難以忘懷。沿著溪畔繞山而行的瑞港公路上，更有數不清的廂型車，來回穿梭於兩地之間接駁載客。\r\n<br><br>\r\n東海岸國家風景區管理處在瑞穗大橋南側的秀姑巒溪畔，設立了瑞穗泛舟服務中心。在這棟仿原住民傳統建築外觀的服務中心裡，除了介紹秀姑巒溪泛舟河段的生態資源、提供遊客泛舟相關資訊、播放泛舟安全影片之外，還附設有露營區。在泛舟活動季節裡，為遊客提供最完善的服務。",
            "Address": "蓮縣瑞穗鄉瑞良村中山路3段215號",
            "Tel": "3-8875400",
            "Hours": "08:00 – 18:00",
            "Figure": "fig/TGE-3302-HualienResort-24.jpg",
            "Link": "https://www.erv-nsa.gov.tw/zh-tw/attractions/detail/46"
        },
        {
            "No": "25",
            "Name": "石梯坪",
            "Category": "花蓮",
            "Area": "豐濱鄉",
            "Description": "石梯坪擁有經風力和海水雕刻而成的特殊岩岸風景，潮間帶上豐富的自然生態資源：螃蟹、海星、海參、寄居蟹、色彩斑斕的魚群，等待觀察力敏銳的人來一探奧秘。夜晚在海蝕平台上方的石梯坪露營區搭營，隔天就能在營帳前迎接美麗的晨曦，看清晨的陽光破雲而出將海面映照得金黃燦爛。\r\n<br><br>\r\n石梯坪位在花蓮縣豐濱鄉石梯灣的南側尾端，整個區域是一個面積極大的海岸階地，海蝕地形十分發達，海蝕平台、隆起珊瑚礁、海蝕溝、海蝕崖等舉目皆是，尤其是壺穴景觀堪稱台灣第一。",
            "Address": " 花蓮縣豐濱鄉石梯坪52號 ",
            "Tel": " 03-8781452",
            "Hours": "全天24小時",
            "Figure": "fig/TGE-3302-HualienResort-25.jpg",
            "Link": "https://www.eastcoast-nsa.gov.tw/zh-tw/attractions/detail/12"
        },
        {
            "No": "26",
            "Name": "親不知子天空步道",
            "Category": "花蓮",
            "Area": "豐濱鄉",
            "Description": "使用透明強化玻璃建造的天空步道，是近年全臺瘋迷的風潮。位於磯崎附近的豐濱海上古道，也採用同樣方式興建，不過建立在海邊的峭壁上，卻是全臺首建。\r\n<br><br>\r\n步道的地點位在臺11線新豐隧道旁，也是隧道未通車前的舊臺11線上，這裡有個響亮卻略顯孤寂的名字「親不知子斷崖」。早年是穿越斷崖的原住民步道，與廢棄的新磯隧道平行，但古道在1971年左右就荒廢沒有使用，近期在豐濱鄉公所的努力下，重新打造全新的天空步道，並於附近規劃大型停車場和公園綠地，方便民眾休憩遊玩",
            "Address": "\r\n花蓮縣豐濱鄉台11線新豐隧道外",
            "Tel": "03-8791350",
            "Hours": "09:00–17:00",
            "Figure": "fig/TGE-3302-HualienResort-26.jpg",
            "Link": "https://tour-hualien.hl.gov.tw/POI/66"
        },
        {
            "No": "27",
            "Name": "赤柯山",
            "Category": "花蓮",
            "Area": "玉里鄉",
            "Description": "位於海拔1,000公尺處的『小瑞士農場』擁有了絕佳視野的地理環境及廣達四公頃的金針花田，農場四周讓金針花海包圍，不論您身處何處都可以看到金針花燦爛的美景，農場的右側還有著彷彿小瑞士山丘的美景，哪怕您只是坐在這裡發呆，四周的美景就能讓您感覺像是在國外度假般的享受。\r\n<br><br>\r\n赤柯山的金針花季從每年的８月至９月，滿山遍野的金針花將整個山頭染成金黃色，壯觀又華麗的景色讓每一個遊客們都陶醉在花海裡；金針開花的時間很短暫，短短的一天就凋謝了，也因此贏得了「一日美人」的稱號，雖然花開稍縱即逝，但每一株金針擁有五個花苞，會輪流開花。因此民眾只要把握好金針花盛開的時機，來到赤柯山就可以欣賞這東部僅有的美景。",
            "Address": "花蓮縣玉里鎮觀音里14鄰高寮275號",
            "Tel": "0988-537696",
            "Hours": "全天24小時",
            "Figure": "fig/TGE-3302-HualienResort-27.jpg",
            "Link": "https://www.taroko.gov.tw/zh-tw/Tourism/AttractionDetail?id=323"
        },
        {
            "No": "28",
            "Name": "六十石山 ",
            "Category": "花蓮",
            "Area": "富里鄉",
            "Description": "六十石山、赤科山、太麻里山為花東縱谷三大金針栽植區，也是每年8月至9月賞金針花海的好去處。六十石山位在富里鄉竹田村東側海拔約800公尺的海岸山脈上，經過一段蜿蜒的山路後，眼前出現無邊無際的田野景致，幾座農舍、涼亭散落在金黃色的金針花田間，形成一幅樸質的田園畫作。",
            "Address": "花蓮縣富里鄉竹田村",
            "Tel": "0972-837928",
            "Hours": "24 小時營業",
            "Figure": "fig/TGE-3302-HualienResort-28.jpg",
            "Link": "https://www.erv-nsa.gov.tw/zh-tw/attractions/detail/58"
        },
        {
            "No": "29",
            "Name": "崇德瑩農場",
            "Category": "花蓮",
            "Area": "秀林鄉",
            "Description": "崇德瑩農場有著紐西蘭牧場的感覺，但是又有美麗的山景，寬闊的海景和夢幻海洋泡泡球屋，還有很多拍照的造景，及很多活動可以參加。來崇德瑩農場玩上大半天也不是問題。",
            "Address": "花蓮縣秀林鄉崇德村下台地立霧溪旁",
            "Tel": "0963-708807",
            "Hours": "09:00 - 06:00",
            "Figure": "fig/TGE-3302-HualienResort-29.jpg",
            "Link": "https://www.chongdefarm.com/"
        },
        {
            "No": "30",
            "Name": "砂卡礑步道",
            "Category": "花蓮",
            "Area": "秀林鄉",
            "Description": "砂卡礑步道原本只開放遊客步行至五間屋後折返，經修復後，從入口可以直行至終點「三間屋」，全長約4.1公里，砂卡礑溪的河床上滿布大大小小的壘石，以大理石與片麻岩最多，搭配藍綠相間水色及山腰的石鑿步道，是這段路程中最美的風景。",
            "Address": "花蓮縣秀林鄉富世村",
            "Tel": "03-8621100#321、322",
            "Hours": "全天24小時",
            "Figure": "fig/TGE-3302-HualienResort-30.jpg",
            "Link": "http://tour-hualien.hl.gov.tw/topic/hike/224"
        },
        {
            "No": "31",
            "Name": "山月吊橋",
            "Category": "花蓮",
            "Area": "秀林鄉",
            "Description": "從布洛灣伊達斯廳旁邊的步道走進去，可以來到山月吊橋。橋長196公尺，橋面寬2.5公尺，距離溪谷約152公尺，從布洛灣臺地邊緣跨越立霧溪谷，是太魯閣國家公園跨距最長、距離溪谷落差最大的吊橋，從橋上俯瞰，立霧溪蜿蜒曲折，而兩岸山勢陡峻，層層相疊，視覺可以從溪谷向上延伸至遠山。往東眺望是溪畔一帶的立霧溪谷，往西則可以欣賞燕子口險峻的峽谷地形，氣勢磅薄。\r\n\r\n從伊達斯廳至吊橋北岸平臺地步道全長500公尺，均為無障礙步道，輪椅及嬰兒車都可暢行無阻。",
            "Address": "花蓮縣秀林鄉232號",
            "Tel": "03-8612528",
            "Hours": "9:00~16:30（每個月第1週、第3週的週一為設備養護日不開放，如遇國定假日則順延1天）",
            "Figure": "fig/TGE-3302-HualienResort-31.jpg",
            "Link": "https://www.taroko.gov.tw/zh-tw/Tourism/AttractionDetail?id=323"
        },
        {
            "No": "32",
            "Name": "燕子口",
            "Category": "花蓮",
            "Area": "秀林鄉",
            "Description": "燕子口步道現有簡易的人車分道設施，惟路面狹窄，經常造成交通壅塞情況，因此太管處便在這個路段，新開鑿兩座隧道，及興建一座橋樑，讓車輛行駛隧道，舊公路則改成單向之步道及車道，工程完成後，步道可延伸到錐麓斷崖，讓遊客能在步道上自由欣賞峽谷景觀。",
            "Address": "花蓮縣秀林鄉中橫公路",
            "Tel": "03-8621100#6",
            "Hours": "全天24小時",
            "Figure": "fig/TGE-3302-HualienResort-32.jpg",
            "Link": "http://tour-hualien.hl.gov.tw/POI/26"
        },
        {
            "No": "34",
            "Name": "七七高地",
            "Category": "花蓮",
            "Area": "壽豐鄉",
            "Description": "七七高地是一處能夠環景360度視野的景點，這塊區域因海拔高度77公尺，故又被稱為七七高地，之前是駐軍的管制區，進入的道路僅有狹小的戰備道，兩旁雜草茂密，汽車進出不方便，可將車停至入口處。\r\n沿著道路進入約數百公尺，便會來到一處廢棄的砲陣地，再往前行數十公尺，便能抵達最北端的制高點，這有一處廢棄的營舍，其二樓平臺，就是展望四周風景的最佳地點，能俯瞰花蓮溪出海口，這裡也是海岸山脈的最北端。\r\n夏季時也要注意蟲蚊蛇蟻，或是酷熱中暑的風險。除此之外，不論是愛好攝影或是欣賞風景，七七高地在各個景點標準裡，都算得進是值得推薦的旅遊名單中。",
            "Address": "\r\n花蓮縣壽豐鄉台11線6.5公里處產業道路上",
            "Tel": "03-8227171",
            "Hours": "全天24小時",
            "Figure": "fig/TGE-3302-HualienResort-34.jpg",
            "Link": "http://tour-hualien.hl.gov.tw/POI/214"
        },
        {
            "No": "35",
            "Name": "牛山呼庭",
            "Category": "花蓮",
            "Area": "壽豐鄉",
            "Description": "牛山位於水璉、番薯寮坑至磯崎之間，為花東沿海五處自然保護區之一，牛山鼻的曲折紋理更是優良的地質教室之一，牛山早期是阿美族的牧牛耕種之地，阿美族稱為「呼庭」。",
            "Address": "花蓮縣壽豐鄉牛山39之5號",
            "Tel": "3-8601400",
            "Hours": "全天24小時",
            "Figure": "fig/TGE-3302-HualienResort-35.jpg",
            "Link": "http://tour-hualien.hl.gov.tw/POI/55"
        },
        {
            "No": "36",
            "Name": "石門班哨所",
            "Category": "花蓮",
            "Area": "豐濱鄉",
            "Description": "位於花蓮豐濱鄉的石門班哨角休憩區，因原為海防部隊的班哨所在地而得名，在班哨廢棄後經重新整治，並設有小燈塔、雙心雕塑、大理石愛心石雕等裝置，距離石門洞、石門休憩區約500公尺，前往石梯坪亦不到4公里，在班哨角可一覽360度海景，是台11線上另一處可休憩之處。",
            "Address": "花蓮縣豐濱鄉台11線60.5公里處",
            "Tel": "03-8671326",
            "Hours": "全天24小時",
            "Figure": "fig/TGE-3302-HualienResort-36.jpg",
            "Link": "https://www.travelking.com.tw/tourguide/scenery105701.html"
        },
        {
            "No": "37",
            "Name": "楓林步道",
            "Category": "花蓮",
            "Area": "吉安鄉",
            "Description": "楓林步道沿途共設置6座觀景台，海拔約300至400公尺，單程步行時間約為2小時，步道坡度緩和，行走不費力，可以騎單車、機車，甚至開車任選一段步行，是一處適合親子同樂踏青遊春郊的好去處。",
            "Address": "花蓮縣吉安鄉大山橋",
            "Tel": "03-8230751",
            "Hours": "全天24小時",
            "Figure": "fig/TGE-3302-HualienResort-37.jpg",
            "Link": "http://tour-hualien.hl.gov.tw/POI/39"
        },
        {
            "No": "38",
            "Name": "夢幻湖",
            "Category": "花蓮",
            "Area": "壽豐鄉",
            "Description": "雲山水生態園區為私人土地，夢幻湖也是由人工開鑿而成，如詩如畫的美景雖讓這裡成為觀光勝地，目開也開放讓民眾參觀，但園區內還是有許多私人住宅及土地是不對外開放的，前來享受美景的同時，別忘了輕聲細語及尊重當地居民的隱私，園區車輛禁止進入。\r\n雲山水自然生態農莊位於花蓮壽豐鄉，花東縱谷中央山脈及海岸山脈之間，占地約24公頃，其中夢幻湖面積大約4公頃，清澈可見裡面的小魚，自然而然的也吸引到許多候鳥、鳥群到這裡來覓食、定居，園區的生態系統就變得更加多元、縝密；此外，園區四周種植了多種棕櫚科樹木，以及依照季節性開花的植物、闊葉林等等，故一年四季的景色都不大相同，每個季節都有特別迷人的地方，這裡同時也是許多攝影愛好者，爭相取景的地方呢！",
            "Address": "花蓮縣壽豐鄉豐坪路二段2巷201弄18號",
            "Tel": "03-8656060",
            "Hours": "全天24小時",
            "Figure": "fig/TGE-3302-HualienResort-38.jpg",
            "Link": "https://tour-hualien.hl.gov.tw/POI/150"
        },
        {
            "No": "39",
            "Name": "新天堂樂園",
            "Category": "花蓮",
            "Area": "吉安鄉",
            "Description": "以擁有「亞洲唯一」貨櫃星巴克而聞名的新天堂樂園，將「連結地球、溝通世界」之構想為其定位，除設有潮流商品專櫃外，還有影城、美食等，是座樓高四層的花蓮新型態複合式商場。",
            "Address": "花蓮縣吉安鄉南濱路一段503號",
            "Tel": "03-8421155",
            "Hours": "平日 09:30-21:00\r\n假日 09:00-21:00",
            "Figure": "fig/TGE-3302-HualienResort-39.jpg",
            "Link": "https://newparadiso.tw/"
        }
    ]