[
        {
            "NO": "001",
            "Name": "地瓜酥、地瓜蜜／楊記振發老店",
            "Category": "台東",
            "Area": "台東市",
            "Type": "伴手禮",
            "Description": "台東指名的排隊伴手禮，一片片金黃色的地瓜酥，裹上一層薄薄的獨特糖漿，香脆酥的口感，忍不住一口接一口的好滋味，是老少咸宜的古早味零嘴，至今流傳50個年頭。\r\n\r\n每日限量的地瓜蜜，特選台農57號香甜地瓜，以慢火經6-8小時將麥芽糖細煮入味，綿密Q彈的口感，令人難忘的懷舊古早味。",
            "Address": "台東市大同路149-1號",
            "Tel": "089-322756",
            "Hours": "10:00~18:00",
            "Figure": "fig/TGE-5403-TaitungSouvenirs-01.jpg",
            "Link": "https://yangpotato.com.tw/"
        },
        {
            "NO": "002",
            "Name": "傳統麻糬／杉原陳家麻糬",
            "Category": "台東",
            "Area": "台東市",
            "Type": "伴手禮",
            "Description": "流傳三代的陳家麻糬，堅持每日手工現做，特選用台東池上的圓糯米，以近8小時的手工揉製而成，不添加任何防腐劑，品嚐台東米獨有的香氣與口感，還有在地風味旗魚鬆麻糬，鹹鹹甜甜令人回味無窮。",
            "Address": "台東市大同路213號",
            "Tel": "089-330125",
            "Hours": "09:00~21:00(六、日) ；09:30~21:00(平日)",
            "Figure": "fig/TGE-5403-TaitungSouvenirs-02.jpg",
            "Link": "http://www.chensmochi.com.tw/"
        },
        {
            "NO": "003",
            "Name": "封仔餅／吉祥食品行",
            "Category": "台東",
            "Area": "台東市",
            "Type": "伴手禮",
            "Description": "\r\n吉祥的封仔餅，皮薄餡多，以油皮與酥皮製成的外衣，層次豐富。鬆軟又層次分明的酥皮，有著淡淡的油香；一口咬下，內餡是甜滋滋的綠豆沙，綿密可口，滿是幸福古早味。",
            "Address": "台東市光明路191號",
            "Tel": "089-322756",
            "Hours": "08:00~22:00",
            "Figure": "fig/TGE-5403-TaitungSouvenirs-03.jpg",
            "Link": "https://www.facebook.com/pages/category/Bakery/%E5%90%89%E7%A5%A5%E9%A3%9F%E5%93%81%E8%A1%8C-303893689772700/"
        },
        {
            "NO": "004",
            "Name": "紅烏龍茶／東傑茶園",
            "Category": "台東",
            "Area": "台東市",
            "Type": "伴手禮",
            "Description": "台東特有的在地紅烏龍茶，茶葉外觀為半球型，顏色烏黑亮麗，茶湯水色琥珀橙紅、明亮澄清，滋味甘甜、潤口，相當迷人。製作過程中，利用夏秋茶生產發酵程度較重之烏龍茶，因重發酵，做出來的茶湯紅而有光澤，帶有熟果香，是送給公司前輩、叔伯阿姨、亦或老靈魂朋友們不可或缺的好禮品。",
            "Address": "台東市大同路227號",
            "Tel": "089-346321",
            "Figure": "fig/TGE-5403-TaitungSouvenirs-04.jpg",
            "Link": "https://www.dongjietea.com/"
        },
        {
            "NO": "005",
            "Name": "紅藜榖物棒／DJULIS德朱利斯",
            "Category": "台東",
            "Area": "台東市",
            "Type": "伴手禮",
            "Description": "與契作小農維持穩定的夥伴關係，要求種植過程必須無農藥、親自前往農地檢查排水性避免紅藜受到重金屬汙染，且採收脫粒後也須以空調恆溫儲存，針對調理方式也使用低溫烘焙18小時。\r\n\r\n總統級伴手禮，穀物界紅寶石！選用「台東紅藜」為主要食材，帶有千層酥般的討喜口感、滿滿的紅藜、甜中帶香的滋味，配上熱茶的療癒滋味讓人忍不住一口接一口，大人小孩都愛吃，愈吃愈涮嘴！",
            "Address": "台東市中華路一段92號",
            "Tel": "089-325989",
            "Hours": "09:00~18:00（週一~週六）",
            "Figure": "fig/TGE-5403-TaitungSouvenirs-05.jpg",
            "Link": "https://www.djulis-tw.com/product.php?gclid=CjwKCAiA-f78BRBbEiwATKRRBK2DO63l12f4yEd406MuwnGzLqqjDKamLxzB8L3SIqAafmIVWL1dQhoCtgEQAvD_BwE"
        },
        {
            "NO": "006",
            "Name": "米榖酥／青澤",
            "Category": "台東",
            "Area": "台東市",
            "Type": "伴手禮",
            "Description": "圓巧的米穀酥，讓懷舊的米香搖身一變，成為一口一個恰好大小、不沾手不黏牙的香酥零食，特選用粒粒分明飽滿的台東池上米，融入多種養生穀物，品嚐純淨台東所孕育的在地好滋味。\r\n\r\n改變零食新風味，堅持烘焙口感酥脆不油炸，6種風味多變，是下午茶的最佳良伴。",
            "Address": "台東市正氣路206號",
            "Tel": "089-333052",
            "Hours": "10:30~21:30",
            "Figure": "fig/TGE-5403-TaitungSouvenirs-06.jpg",
            "Link": "https://chingtse.com/?gclid=CjwKCAiA-f78BRBbEiwATKRRBLhlVbZsDXHV7D5uXxIahnBs7CSPj9DOE6M6xsOQEhHVW0WsIUod0BoCPxcQAvD_BwE"
        },
        {
            "NO": "007",
            "Name": "旗魚鬆／旗遇海味館",
            "Category": "台東",
            "Area": "成功鎮",
            "Type": "伴手禮",
            "Description": "特選用黑皮旗魚赤身（可當生魚片等級）的整塊純魚肉下鍋炒香，真材實料絕不添加碗豆粉，一入口旗魚香氣直接在口中散開；配上白飯，簡簡單單就是小朋友最愛的美味料理。",
            "Address": "台東縣成功鎮港邊路19-8號",
            "Tel": "089-852889",
            "Hours": "10:00 - 20:00",
            "Figure": "fig/TGE-5403-TaitungSouvenirs-07.jpg",
            "Link": "http://www.meetmarlin.com/?fbclid=IwAR12cMT-hksUkyadI2p64xRAlKwj1tsTI_5vPIQXDE6LqNfoTjg56LyfF3Y"
        },
        {
            "NO": "008",
            "Name": "旗魚肉紙／鴻鼎記肉紙",
            "Category": "台東",
            "Area": "台東市",
            "Type": "伴手禮",
            "Description": "薄如蟬翼的一張旗魚肉紙，經由350度的熱風乾燥，比起傳統肉乾而言，更加清爽酥脆、不油不膩，你可以看見整片肉紙經烘烤後，會因為肉本身的油脂而緊縮成不平整的樣子，這才是真材實料的象徵。 ",
            "Address": "台東市傳廣路156號",
            "Tel": "089-353366",
            "Hours": "08:00~20:00（週二公休）",
            "Figure": "fig/TGE-5403-TaitungSouvenirs-08.jpg",
            "Link": "http://hongdingji.livetaitung.tw/"
        },
        {
            "NO": "009",
            "Name": "柴魚及海味食品／大慶柴魚",
            "Category": "台東",
            "Area": "成功鎮",
            "Type": "伴手禮",
            "Description": "一進店裡，濃濃的柴魚香氣撲鼻而來，無論是現刨的柴魚片或是多樣化的魚鮮加工製品：章魚花、鮪魚糖、魷魚絲、魚酥等都是許多旅人的心頭好。",
            "Address": "台東縣成功鎮中山路62號",
            "Tel": "089-851133",
            "Figure": "fig/TGE-5403-TaitungSouvenirs-09.jpg",
            "Link": "https://dachin1985.com.tw/"
        },
        {
            "NO": "010",
            "Name": "秧秧好米／南島秧滿田",
            "Category": "台東",
            "Area": "關山鎮",
            "Type": "伴手禮",
            "Description": "據說1950年代，高雄139號為台灣稻作的上乘品種，素有醜美人之稱，體積雖不大卻結實飽滿，深受民眾喜愛。\r\n\r\n南島秧滿田採小農自銷，每筆訂單都是出貨前一天剛碾好的新米，堅持現點現碾的美意，讓住在都市裡的朋友也能品嘗剛碾好的當季新米滋味。",
            "Address": "台東縣關山鎮和平路58號",
            "Tel": "089-812587",
            "Hours": "09:00~17:00（週一~週五）",
            "Figure": "fig/TGE-5403-TaitungSouvenirs-10.jpg",
            "Link": "http://www.krice.com.tw/2019/"
        },
        {
            "NO": "011",
            "Name": "禾作米／日出禾作",
            "Category": "台東",
            "Area": "關山鎮",
            "Type": "伴手禮",
            "Description": "日出禾作為電光部落的在地小農，以無農藥的友善土地方式耕種「台南13號梗稻」，口感香甜彈牙，粒粒分明，最讓人回味的還是它本身所夾帶的芋頭香；日出禾作申請嚴格的慈心綠色保育標章，只為把關有機米的好品質，品嚐令人安心的台東好米。",
            "Address": "台東縣關山鎮電光里中興52號",
            "Tel": "0934-254225",
            "Figure": "fig/TGE-5403-TaitungSouvenirs-11.jpg",
            "Link": "https://www.facebook.com/pages/category/Food---Beverage-Company/%E6%97%A5%E5%87%BA%E7%A6%BE%E4%BD%9C-908032775926598/"
        }
    ]