[
        {
            "NO": "001",
            "Name": "廟口紅茶",
            "Category": "花蓮",
            "Type": "早餐",
            "Description": "來這裡點杯紅茶，再搭配個小西點或早點，就很有古早味的感覺，還有口味獨特的杏仁茶、花生湯…等，也是來這必點的招牌飲料甜品。",
            "Address": "花蓮縣花蓮縣花蓮市成功街216號",
            "Tel": "03 832 3846",
            "Hours": "24 小时营业",
            "Figure": "fig/TGE-5102-HualienFood-01.jpg",
            "Link": "https://www.facebook.com/pages/%E5%BB%9F%E5%8F%A3%E7%B4%85%E8%8C%B6/185010841521611"
        },
        {
            "NO": "002",
            "Name": "山東豆漿大王",
            "Category": "花蓮",
            "Type": "早餐",
            "Description": "花蓮在地人推薦的中式早點，早上熱門時段非得要排隊才可以吃的到！ 除了有豆漿、蛋餅、餡餅…等外，這裡特有的中式燒堡你一定要點點看！",
            "Address": "花蓮縣花蓮市博愛街198-218",
            "Tel": "03 832 2621",
            "Hours": "\r\n06:00 - 11:00",
            "Figure": "fig/TGE-5102-HualienFood-02.jpg",
            "Link": "https://www.facebook.com/ShanDongDou"
        },
        {
            "NO": "003",
            "Name": "陳樓記美食",
            "Category": "花蓮",
            "Type": "早餐",
            "Description": "無敵的炒麵加蛋，再配上一碗豬血湯，沒錯！ 這就是我們在地花蓮人早餐的選擇，不過像我偶爾也會點份炒米粉、蛋餅、酸辣湯…等",
            "Address": "花蓮縣中正路155號 ",
            "Tel": "03 836 2699",
            "Hours": "\r\n06:00 - 13:30, 週一公休",
            "Figure": "fig/TGE-5102-HualienFood-03.jpg",
            "Link": "https://www.facebook.com/pages/category/Chinese-Restaurant/%E9%99%B3%E6%A8%93%E8%A8%98%E7%BE%8E%E9%A3%9F%E5%85%AB%E6%96%B9%E9%BE%8D%E5%87%BA%E5%93%81-333680963480223/"
        },
        {
            "NO": "004",
            "Name": " 鄉村媽媽",
            "Category": "花蓮",
            "Type": "早餐",
            "Description": "花蓮早午餐界中的排隊名店，有班尼迪克蛋、蛋捲、三明治、貝果…等超人氣餐點可以選擇，小薛建議平日人少的時段再來吃會比較能悠閒享受喔！",
            "Address": "花蓮縣花蓮市蘇花公路3",
            "Tel": "03 823 6008",
            "Figure": "fig/TGE-5102-HualienFood-04.jpg",
            "Link": "https://www.facebook.com/pages/category/Breakfast---Brunch-Restaurant/%E8%8A%B1%E8%93%AECountry-Mothers-143800912349302/"
        },
        {
            "NO": "005",
            "Name": "公正街包子店",
            "Category": "花蓮",
            "Type": "午餐",
            "Description": "每一顆都是現場現包手工製作，白ＱＱ的外皮一口咬下，皮香 Q 肉餡鮮甜，除了著名必點的小籠包外，蒸餃也相當不錯，如果最後再來一杯冰豆漿，那真的是太讚了",
            "Address": "花蓮市中山路199之2號 ",
            "Tel": "03 834 2933",
            "Hours": "06:00 - 21:00",
            "Figure": "fig/TGE-5102-HualienFood-05.jpg",
            "Link": "https://www.facebook.com/pages/category/Food-Stand/%E5%85%AC%E6%AD%A3%E5%8C%85%E5%AD%90-175588822483275/"
        },
        {
            "NO": "006",
            "Name": "液香扁食店",
            "Category": "花蓮",
            "Type": "午餐",
            "Description": "從民國 23 年營業至今，已經傳承四代的好滋味，每天扁食都要手工現包，用大骨精心熬製的湯頭，再加上油蔥酥、芹菜和醬油，每一口扁食都吃的到鮮甜，真是古早味的好味道",
            "Address": "花蓮縣花蓮市信義街42號",
            "Tel": "\t03 832 6761",
            "Hours": "\t09:00 - 13:30\r\n14:00 - 21:30",
            "Figure": "fig/TGE-5102-HualienFood-06.jpg",
            "Link": "https://www.facebook.com/pages/%E8%8A%B1%E8%93%AE%E6%B6%B2%E9%A6%99%E6%89%81%E9%A3%9F/199834510043499"
        },
        {
            "NO": "007",
            "Name": "鵝肉先生",
            "Category": "花蓮",
            "Type": "午餐",
            "Description": "這裡除了賣鮮嫩好吃的鵝肉外，還有賣滷鵝胗、糯米鵝血…等招牌菜喔～ 除此之外還有各式熱炒可以選擇，再來配一碗陽春麵就可以飽餐一頓囉！",
            "Address": "花蓮縣\r\n林森路224號 970",
            "Tel": "03 833 1906",
            "Hours": "11:30 - 14:30 、 16:30 - 22:00",
            "Figure": "fig/TGE-5102-HualienFood-07.jpg",
            "Link": "https://www.facebook.com/pages/category/Diner/%E9%B5%9D%E8%82%89%E5%85%88%E7%94%9F%E6%9E%97%E6%A3%AE%E5%BA%97-1124449164263879/"
        },
        {
            "NO": "008",
            "Name": "滷大夫 新城爌肉飯",
            "Category": "花蓮",
            "Type": "午餐",
            "Description": "眾多在地人推薦花蓮最好吃的爌肉飯！ 滷到恰到好處的招牌爌肉，肥嫩中絲毫沒有過多的油膩感，難怪好吃要排隊呀！其他還有豬腳飯、滷排飯、泡菜牛丼…等餐點可以選擇喔",
            "Address": "\r\n花蓮縣花蓮市和平路560號",
            "Tel": "03 834 7349",
            "Hours": "11:00 - 19:30, 週日公休",
            "Figure": "fig/TGE-5102-HualienFood-08.jpg",
            "Link": "https://www.facebook.com/dr.lu.restaurant"
        },
        {
            "NO": "009",
            "Name": "南華大陸麵店",
            "Category": "花蓮",
            "Type": "午餐",
            "Description": "在南華這裡才有的特色煎麵料理你絕對不能錯過，將南華麵煎的焦黃後盛盤，上頭在淋上配料，味道真是又油又香又好吃！ 而且煎麵幾乎大到是快跟盤子差不多大喔～",
            "Address": "花蓮縣花蓮縣吉安鄉吉安路六段31號",
            "Tel": "\t03 852 6668",
            "Hours": "10:00 - 20:00",
            "Figure": "fig/TGE-5102-HualienFood-09.jpg",
            "Link": "https://www.facebook.com/pages/%E5%8D%97%E8%8F%AF%E5%A4%A7%E9%99%B8%E9%BA%B5%E5%BA%97/110122265734364"
        },
        {
            "NO": "010",
            "Name": "老牌炸蛋蔥油餅",
            "Category": "花蓮",
            "Type": "下午茶",
            "Description": "這就是花蓮特有的炸蛋蔥油餅，你看這蔥油餅炸的是多麼酥脆呀！ 外皮呈現金黃色，一口咬下，酥脆中還帶點 Q 勁，不過要小心蛋黃爆漿洗衣服",
            "Address": "花蓮縣花蓮市復興街112",
            "Tel": "0955 282 038",
            "Hours": "13:00 - 18:30",
            "Figure": "fig/TGE-5102-HualienFood-10.jpg",
            "Link": "https://www.facebook.com/pages/category/Food-Truck/%E8%80%81%E7%89%8C%E7%82%B8%E8%9B%8B%E8%94%A5%E6%B2%B9%E9%A4%85-258362204251540/"
        },
        {
            "NO": "011",
            "Name": "古巴三明治",
            "Category": "花蓮",
            "Type": "下午茶",
            "Description": "電影五星主廚快餐車中的古巴三明治，現在花蓮也吃得到囉！ 每日限量現點現做，雖然沒什麼人在排隊，但電話訂購或外送的人可是很多的，建議三點一開店就開始打電話，宵夜時段想吃的話也可以電話預約，老闆會貼心的開到宵夜時段喔",
            "Address": "花蓮縣花蓮市中原路599",
            "Tel": "0961 105 246",
            "Hours": "15:00 - 22:00",
            "Figure": "fig/TGE-5102-HualienFood-11.jpg",
            "Link": "https://www.facebook.com/PowerCudaS"
        },
        {
            "NO": "012",
            "Name": "提拉米蘇精緻蛋糕",
            "Category": "花蓮",
            "Type": "下午茶",
            "Description": "花蓮相當有名的點心店+伴手禮店，想當年我一個人買一整塊提拉米蘇蛋糕回來當晚餐XD 除了提拉米蘇外，還有其他精緻蛋糕可以選擇．",
            "Address": "花蓮市中原路738號",
            "Tel": "03 853 1810",
            "Hours": "10:00~20:00",
            "Figure": "fig/TGE-5102-HualienFood-12.jpg",
            "Link": "https://www.tiramisu.com.tw/"
        },
        {
            "NO": "013",
            "Name": "五霸焦糖包心粉圓",
            "Category": "花蓮",
            "Type": "下午茶",
            "Description": "刨冰上層淋上焦糖和煉乳，特別紋路鋪成一格一格的形狀，在夏天五霸包心粉圓焦糖煉乳刨冰簡直就是刨冰界的藝術品嘛！ 夏天有刨冰、冬天有熱甜湯，所以一年四季都可以來這裡吃喔",
            "Address": "花蓮縣花蓮市博愛街169-163",
            "Tel": "03 832 2929",
            "Hours": "10:00 - 23:00",
            "Figure": "fig/TGE-5102-HualienFood-13.jpg",
            "Link": "https://www.facebook.com/58caramel/"
        },
        {
            "NO": "014",
            "Name": "正當冰",
            "Category": "花蓮",
            "Type": "下午茶",
            "Description": "來花蓮，我們就來正正當當來吃『正當冰』吧！ 少了化工添加物的調味，讓你吃到最真材實料的味道，讓消費者接受味覺教育，知道吃什麼食物才是對的！ 還有冬天限定的正當燒仙草喔",
            "Address": "花蓮縣花蓮市中福路147號",
            "Tel": "03 835 6968",
            "Hours": "<二>公休\r\n<六>到<日>下午1:30–下午9:00\r\n<一>到<五>下午1:30–下午5:30、下午6:30–下午9:00",
            "Figure": "fig/TGE-5102-HualienFood-14.jpg",
            "Link": "https://justicecream.tw/"
        },
        {
            "NO": "015",
            "Name": "海埔蚵仔煎",
            "Category": "花蓮",
            "Type": "晚餐",
            "Description": "各位不管是翻旅遊書或是看網路上，花蓮著名的蚵仔煎小吃一定會推薦這一家！ 只單單只靠賣著蚵仔煎和蛤仔湯，營業時間經常座無虛席，沒特別排隊可是吃不到的",
            "Address": "花蓮縣花蓮市自由街86號",
            "Tel": "0933 126 940",
            "Hours": "17:00 - 23:00",
            "Figure": "fig/TGE-5102-HualienFood-15.jpg",
            "Link": "https://www.facebook.com/pages/%E6%B5%B7%E5%9F%94%E8%9A%B5%E4%BB%94%E7%85%8E/172910589419855"
        },
        {
            "NO": "016",
            "Name": "來成排骨麵",
            "Category": "花蓮",
            "Type": "晚餐",
            "Description": "超過一甲子歲月的排骨麵老店，來這裡不點碗排骨麵那怎麼行呢？ 除了排骨麵外，黃金蛋也是必點的一道，光看它的剖面圖真是叫人垂涎三尺呀！",
            "Address": "花蓮縣花蓮市中正路544號",
            "Tel": "03 832 3121",
            "Figure": "fig/TGE-5102-HualienFood-16.jpg",
            "Link": "https://www.facebook.com/pages/%E4%BE%86%E6%88%90%E6%8E%92%E9%AA%A8%E9%BA%B5/162915307090011"
        },
        {
            "NO": "017",
            "Name": "賴桑壽司屋",
            "Category": "花蓮",
            "Type": "晚餐",
            "Description": "說到他的特色，網路上的評價都是便宜、新鮮、份量多，難怪被一堆部落客說 CP 值超高的，重點是… 菜單選擇實在是有夠多樣的，不知道點什麼的話那就點賴桑巨無霸招牌握壽司吧！",
            "Address": "花蓮縣花蓮市林森路90號",
            "Tel": "\r\n03 832 8917",
            "Hours": "11:00 - 13:30 、 21:00 - 20:30",
            "Figure": "fig/TGE-5102-HualienFood-17.jpg",
            "Link": "https://www.facebook.com/%E8%B3%B4%E6%A1%91%E5%A3%BD%E5%8F%B8%E5%B1%8B-148537848539574/"
        },
        {
            "NO": "018",
            "Name": "家咖哩 Jiacurry",
            "Category": "花蓮",
            "Type": "晚餐",
            "Description": "集合許多在地友善食材，讓這裡的咖哩料理充滿了花蓮在地特色，讓人吃的舒服又很飽，真的很有家的感覺:) 現在北部、南部…等地方都設有家咖哩分店，也可以上官網訂購咖哩醬和調理包，宅配到家自行料理喔",
            "Address": "花蓮市新港街43號",
            "Tel": "03 8316 272",
            "Hours": "\t\r\n11:30–14:00\r\n17:30–20:00",
            "Figure": "fig/TGE-5102-HualienFood-18.jpg",
            "Link": "https://www.jiacurry.com/"
        },
        {
            "NO": "019",
            "Name": "王將壽司",
            "Category": "花蓮",
            "Type": "宵夜",
            "Description": "當市區夜深人靜，店家準備要打烊休息時，就是這家壽司攤正準備要營業之時，營業宵夜時段，以提供日常的台式日本料理為主，像是握壽司、手卷、玉子燒、黑輪…等",
            "Address": "花蓮縣花蓮市南京街232號 970",
            "Tel": "03 833 5008",
            "Hours": "17:30 - 01:00",
            "Figure": "fig/TGE-5102-HualienFood-19.jpg",
            "Link": "https://www.facebook.com/pages/category/Sushi-Restaurant/%E7%8E%8B%E5%B0%87%E5%A3%BD%E5%8F%B8-228643740554671/"
        },
        {
            "NO": "020",
            "Name": "德安橋頭林記香酥雞",
            "Category": "花蓮",
            "Type": "宵夜",
            "Description": "根據經驗，每次晚上時段來都要等上 30 ~ 40 分鐘左右，甚至宵夜時段可能會等上一個小時… 必點的有炸魷魚、香酥雞、香雞排…等炸物，記得宵夜時段打電話預定，拿來下酒真是剛剛好呀！",
            "Address": "花蓮縣花蓮市德安五街1號",
            "Tel": "\t0928 570 830",
            "Hours": "17:30 - 23:00",
            "Figure": "fig/TGE-5102-HualienFood-20.jpg",
            "Link": "https://www.facebook.com/pages/%E5%BE%B7%E5%AE%89%E6%A9%8B%E9%A0%AD%E9%A6%99%E9%85%A5%E9%9B%9E/216542215029142"
        },
        {
            "NO": "022",
            "Name": "蔣家花蓮創意官財板 ",
            "Category": "花蓮",
            "Type": "夜市",
            "Description": "花蓮東大門夜市 超熱門時段可是要等上一個小時左右的官財板，炸的外香脆內 Q 軟的口感超讚！ 主要分為牛肉、豬肉、羊肉、雞肉、海鮮…等多種口味官財板可以選擇喔",
            "Address": "花蓮縣花蓮市明義街1-47號附近 ",
            "Tel": "0935 242 414",
            "Hours": "16:30 - 23:30",
            "Figure": "fig/TGE-5102-HualienFood-22.jpg",
            "Link": "https://www.facebook.com/pages/category/Food-Stand/%E8%94%A3%E5%AE%B6%E8%8A%B1%E8%93%AE%E5%89%B5%E6%84%8F%E5%AE%98%E8%B2%A1%E6%9D%BF-817761638284307/"
        },
        {
            "NO": "023",
            "Name": "第一家烤肉串",
            "Category": "花蓮",
            "Type": "夜市",
            "Description": "雖然搬到 花蓮東大門夜市 的第一家已沒有高高煙囪當作招牌，但熱門時段如果不早來，一樣也要等一小時以上… 這裡有多種烤肉串，不管是烤魷魚、烤雞腿、甜不辣串…等，都適合拿來當下酒菜喔",
            "Address": "花蓮縣花蓮縣吉安鄉自強路口",
            "Tel": "03 851 3182",
            "Hours": "17:30 - 23:00",
            "Figure": "fig/TGE-5102-HualienFood-23.jpg",
            "Link": "https://www.facebook.com/pages/%E8%87%AA%E5%BC%B7%E5%A4%9C%E5%B8%82-%E7%AC%AC%E4%B8%80%E5%AE%B6%E7%83%A4%E8%82%89%E4%B8%B2/159098440821012"
        },
        {
            "NO": "024",
            "Name": "林記燒番麥",
            "Category": "花蓮",
            "Type": "夜市",
            "Description": "傳香四十多年的烤玉米，也就是燒番麥啦！ 採用當日鮮摘有機玉米、而且種植採收一手包辦，口感方面分為硬、Q、軟三種，口味的話一樣有經典招牌、玫瑰椒鹽、素食主義…等三種，只有在 花蓮東大門夜市 才吃得到喔～",
            "Address": "花蓮縣東大門夜市，花蓮市中山路20號正對面，北濱街交叉口原住民一條街 區號:E1",
            "Tel": "0937 947 886",
            "Hours": "17:00 - 23:00",
            "Figure": "fig/TGE-5102-HualienFood-24.jpg",
            "Link": "https://www.facebook.com/corniloveyou/?rf=422165717865226"
        },
        {
            "NO": "025",
            "Name": "北港春捲",
            "Category": "花蓮",
            "Type": "夜市",
            "Description": "其實春捲就是潤餅，這家也是 花蓮東大門夜市 的排隊名店之一 ，肉類有豬肉、牛肉，口味有原味、蒜末、辣椒、芥末和咖哩可選擇，春捲裡還包著高麗菜、豆芽菜、花生粉、豆乾和蒜末…等食材，一口咬下真是滿足呀",
            "Address": "花蓮市，花蓮縣博愛街",
            "Tel": "0922 012 074",
            "Hours": "\r\n17:30 - 22:30",
            "Figure": "fig/TGE-5102-HualienFood-25.jpg",
            "Link": "https://www.facebook.com/chineseburrito/"
        },
        {
            "NO": "026",
            "Name": "豬豬豬原住民美食",
            "Category": "花蓮",
            "Type": "夜市",
            "Description": "已「馬英九沒有來吃過！」打出知名度的人氣店家就位於 花蓮東大門夜市 內，其中具有阿美族傳統風味的山豬肉炒泡麵是這裡熱門最旺的排隊美食喔",
            "Address": "\r\n花蓮市，花蓮縣原住民一條街D18號攤，與福町夜市交叉口",
            "Hours": "17:00 - 00:00",
            "Figure": "fig/TGE-5102-HualienFood-26.jpg",
            "Link": "https://www.facebook.com/PIGPIGPIG0314/"
        },
        {
            "NO": "027",
            "Name": "妙不可言果汁店",
            "Category": "花蓮",
            "Type": "夜市",
            "Description": "即使是現打果汁攤，在 花蓮東大門夜市 內也能興起排隊人潮，種類上有 50 種左右的現打果汁可選擇，所以就算在夜市吃雞排、烤肉串、牛排…等小吃後，也別忘了來一杯現打果汁補充維他命 C 喔～",
            "Address": "花蓮縣東大門夜市",
            "Tel": "0981 586 991",
            "Hours": "17:00 - 23:00",
            "Figure": "fig/TGE-5102-HualienFood-27.jpg",
            "Link": "https://www.facebook.com/goodfreshjuice/"
        },
        {
            "NO": "028",
            "Name": "宜蘭香炸螃蟹",
            "Category": "花蓮",
            "Type": "夜市",
            "Description": "記得他們家搬了很多次，最後落腳在 花蓮東大門夜市 內，也是整個福町夜市區域最強的炸物排隊名店之一！ 只是晚上七點多才開門，所以不要太早去撲空喔XD 建議可以六點多就可以打電話來預約一下",
            "Address": "花蓮東大門夜市-宜蘭香炸螃蟹 C17攤",
            "Tel": "0975 333 282",
            "Hours": "18:30 - 23:30",
            "Figure": "fig/TGE-5102-HualienFood-28.jpg",
            "Link": "https://www.facebook.com/pages/category/Night-Market/%E8%8A%B1%E8%93%AE%E6%9D%B1%E5%A4%A7%E9%96%80%E5%A4%9C%E5%B8%82-%E5%AE%9C%E8%98%AD%E9%A6%99%E7%82%B8%E8%9E%83%E8%9F%B9-C17%E6%94%A4-167503610587142/"
        }
    ]