[
        {
            "NO": "001",
            "Name": "洄瀾薯道",
            "Category": "花蓮",
            "Area": "花蓮市",
            "Type": "伴手禮",
            "Description": "說到「洄瀾薯道」，幾乎可以說是花蓮薯的第一品牌，別說觀光客，它們家就連在地人也狂激推！\r\n\r\n強調手工、減糖、完全不含人工香料，如果你問花蓮人花蓮有什麼好吃好買的伴手禮，10個大概會有一半都會推薦它們家，像我們這次住花蓮火車站附近的一間民宿，民宿老闆娘也說這家超好吃，甚至連他們自己都很常買送給朋友呢！",
            "Address": "花蓮市中華路11號",
            "Tel": "03-8338899　",
            "Hours": "08:00 - 22:30",
            "Figure": "fig/TGE-5402-HualienSouvenirs-01.jpg",
            "Link": "https://since1938.com/"
        },
        {
            "NO": "002",
            "Name": "鳳梨灣",
            "Category": "花蓮",
            "Area": "花蓮市",
            "Type": "伴手禮",
            "Description": "還記得第一次聽到「鳳梨灣」時，那時候是看到網路文章，說這家可是總統府拿來宴請外賓的伴手禮，不得不說這個頭銜，光聽就感覺很強大。\r\n\r\n鳳梨灣一樣也在中華路上，不過花蓮在地的門市不少，在這邊也算是數一數二，就連花蓮人也會買的超人氣店家。",
            "Address": "花蓮市中華路141號",
            "Tel": "03-8361938",
            "Hours": "08:30 - 22:30",
            "Figure": "fig/TGE-5402-HualienSouvenirs-02.jpg",
            "Link": "https://funny111.com.tw/"
        },
        {
            "NO": "003",
            "Name": "文旦復興",
            "Category": "花蓮",
            "Area": "花蓮市",
            "Type": "伴手禮",
            "Description": "如果不說大家一定不知道，原來台灣柚子產量最大的，竟然是在花蓮！它們家的產品主要以文旦柚為主軸，花蓮文旦酥、青柚小丸子、青柚燒及柚見花蓮薯通通是它們家的強打招牌。\r\n\r\n會知道這家「文旦復興」，主要是因為它跟洄瀾薯道及鳳梨灣合作，使用花蓮在地的文旦柚做成商品，也是花蓮今年才剛開幕沒多久的最新花蓮伴手禮呦！",
            "Address": "花蓮市中山路193號",
            "Tel": "03-8350011",
            "Hours": "8：30 – 22：30",
            "Figure": "fig/TGE-5402-HualienSouvenirs-03.jpg",
            "Link": "https://hualien-dessert.com/"
        },
        {
            "NO": "004",
            "Name": "德利豆乾",
            "Category": "花蓮",
            "Area": "花蓮市",
            "Type": "伴手禮",
            "Description": "德利豆乾可以說是花蓮的老字號店舖了，在花蓮當地已經足足超過100年，完全就是在地人從小吃大到的一家超級老店。\r\n\r\n它的位置一樣在花蓮中華路，老實說這上面店家百百間，沒做功課你還真的一時不曉得該買哪一家，像是鳳梨灣、洄瀾薯道，另外就是德利豆乾也非常多在地人推薦。",
            "Address": "花蓮市大禹街6號",
            "Tel": "03-833-8039",
            "Hours": "09:00 - 22:00",
            "Figure": "fig/TGE-5402-HualienSouvenirs-04.jpg",
            "Link": "https://derli.cyberbiz.co/"
        },
        {
            "NO": "005",
            "Name": "蜂之鄉",
            "Category": "花蓮",
            "Area": "花蓮市",
            "Type": "伴手禮",
            "Description": "愛吃蜂蜜的朋友，也許都會對這家蜂之鄉不陌生，在花蓮在地，也是今年2019年得獎的百大伴手禮。如果你問我，來到蜂之鄉必買的有什麼，那麼我可能會推薦你它們家的各種風味蜜，第一名最具人氣是「太魯閣風味蜜」，獨特的氣味非常耐人尋味。",
            "Address": "花蓮市中華路99號",
            "Tel": "03-8220777",
            "Hours": "10:00 - 22:00",
            "Figure": "fig/TGE-5402-HualienSouvenirs-05.jpg",
            "Link": "https://bee-pro.com/"
        },
        {
            "NO": "006",
            "Name": "嘉茗茶園",
            "Category": "花蓮",
            "Area": "瑞穗鄉",
            "Type": "伴手禮",
            "Description": "花蓮伴手禮，不光光只是餅類、甜點類，這家座落於瑞穗的「嘉茗茶園」更是伴手禮的超人氣！\r\n\r\n你以為就只有餅類會得獎嗎？它們家茶葉獎記錄一說出來，保證讓大家全部嚇一跳，當初會吸引我的原因，就是因為它是花蓮蜜香紅茶的研發者，連不愛喝茶的我，都深深著迷它們家。",
            "Address": "花蓮縣瑞穗鄉舞鶴村一鄰65號",
            "Tel": "03-8871325",
            "Hours": "08:00 - 21:00",
            "Figure": "fig/TGE-5402-HualienSouvenirs-06.jpg",
            "Link": "https://www.jiaming-teagarden.com.tw/"
        },
        {
            "NO": "007",
            "Name": "潘師傅沙琪瑪",
            "Category": "花蓮",
            "Area": "花蓮市",
            "Type": "伴手禮",
            "Description": "說到這家「潘師傳沙琪瑪」，在花蓮當地可是名氣響噹噹，別說在地人喜歡，就連不少外地人到花蓮旅行，也都指名要買它，絕對是到花蓮必買的超人氣伴手禮之一。一開始把它跟傳統那種鬆軟的沙琪瑪直接聯想在一塊，但吃起來可是完全不一樣呦！\r\n\r\n又酥又脆、就連口味也超多，原味、芥末、柴魚、黑糖、芝麻、青蔥，光是選擇就足足六種這麼多，採單獨包裝，看起來衛生精緻，採夾鍊包裝，保鮮更容易。",
            "Address": "花蓮市德安一街21號",
            "Tel": "0983-231970",
            "Hours": "09:00 - 21:00",
            "Figure": "fig/TGE-5402-HualienSouvenirs-07.jpg",
            "Link": "http://panmaster.com.tw/"
        },
        {
            "NO": "008",
            "Name": "曾記麻糬",
            "Category": "花蓮",
            "Area": "花蓮市",
            "Type": "伴手禮",
            "Description": "曾記麻糬的創建，就是一個關於愛與感恩的故事。將這份愛與感恩放進曾記麻糬的產品中，是曾記麻糬一路走來不變的初衷。\r\n\r\n因為感恩，所以致力於企業的經營與研發，全心關注每一個細節；我們相信成功沒有捷徑，唯有勤勤懇懇、腳踏實地的努力，懷抱著感恩的心，與全體員工和喜歡曾記麻糬的朋友們，一起實踐永續經營的願望。",
            "Address": "花蓮市廣東街96號",
            "Tel": "03-8361314",
            "Hours": "週一～週五，9:00～12:00，13:30～17:00",
            "Figure": "fig/TGE-5402-HualienSouvenirs-08.jpg",
            "Link": "https://www.tzen1314.com/"
        },
        {
            "NO": "009",
            "Name": "阿美麻糬",
            "Category": "花蓮",
            "Area": "花蓮市",
            "Type": "伴手禮",
            "Description": "已有四十多年杜侖製作經驗的花東地區老品牌-【阿美麻糬】，靠著董事長余宗柏先生對於阿美族文化的熱愛與收藏，承襲阿美族杜侖的製作技藝，將原住民傳統美食加以改良量化，率先成為花東第一家使用小米材料的名特產品牌，好吃美味的阿美斯杜侖及精心製作的花東名產糕點，都獲得遊客的喜愛與回響。",
            "Address": "花蓮縣吉安鄉南濱路一段258號",
            "Tel": "03-8420033",
            "Hours": "07:30 - 18:00",
            "Figure": "fig/TGE-5402-HualienSouvenirs-09.jpg",
            "Link": "http://www.amis-mochi.com.tw/"
        }
    ]