[
        {
            "NO": "001",
            "Name": "晨霄海鮮",
            "Category": "台東",
            "Type": "長濱鄉",
            "Description": "不起眼的公路旁卻藏著必吃美食！沒有菜單，旁邊就只有幾個小牌子寫上供應的炒時蔬與飯麵類，海鮮必須要看當天老闆供應。抱著單純填飽肚子的心情用餐，一吃下肚瞬間改觀！蝦子超級鮮甜，魚湯",
            "Address": "台東縣長濱鄉成靜公路41-3號",
            "Tel": "（08）980-1368",
            "Hours": "11:00-14:00，17:00-20:00",
            "Figure": "fig/TGE-5103-TaitungFood-01.jpg",
            "Link": "https://www.facebook.com/pages/category/Seafood-Restaurant/%E6%99%A8%E9%9C%84%E6%B5%B7%E9%AE%AE%E5%B0%8F%E5%90%83-151014165088863/"
        },
        {
            "NO": "002",
            "Name": "藍蜻蜓",
            "Category": "台東",
            "Type": "台東市",
            "Description": "醒目的藍色招牌，遠遠看去人龍總是不斷，漫長的等待總是值得，炸雞的外觀就像古早味便當店的雞腿，薄皮且酥脆，吃的時候非常建議拿著袋子享用，超會滴汁！這麼多汁的炸雞只有藍蜻蜓才吃得到",
            "Address": "台東縣台東市大同路214號",
            "Tel": "（08）931-0869",
            "Hours": "10:30–23:00",
            "Figure": "fig/TGE-5103-TaitungFood-02.jpg",
            "Link": "https://www.facebook.com/bluedragonflytaitung/"
        },
        {
            "NO": "003",
            "Name": "榕樹下米苔目",
            "Category": "台東",
            "Type": "台東市",
            "Description": "菜單非常的可愛童趣，只賣米苔目乾的與湯的兩種，雖然樸實無華，卻是最簡單的美味。米苔目吃起來特別Q彈，醬料也不會太過於鹹，搭在一起這麼的剛好，是台東非常知名的美食小吃。女生的話建議點大碗的會比較有飽足感呦！",
            "Address": "台東縣台東市大同路176號",
            "Tel": "0963-148-519",
            "Hours": "09:30–15:00，17:00–20:00",
            "Figure": "fig/TGE-5103-TaitungFood-03.jpg",
            "Link": "https://www.facebook.com/%E6%A6%95%E6%A8%B9%E4%B8%8B%E7%B1%B3%E8%8B%94%E7%9B%AE-840972072597237/"
        },
        {
            "NO": "004",
            "Name": "黑松羊肉爐",
            "Category": "台東",
            "Type": "台東市",
            "Description": "佛心來著的黑松羊肉爐，最貴最貴的羊肉爐才350元，超級便宜。羊肉爐的肉也十分大塊，吃起來沒有令人害怕的羊騷味與乾柴，搭配豆瓣醬吃又是另一種享受，湯頭也非常濃郁。除了羊肉爐以外，沙茶羊肉也超級下飯，喜歡吃羊肉的朋友一定要去！",
            "Address": "台東縣台東市知本路三段144之2號",
            "Tel": "（08）951-2477",
            "Hours": "16:30–22:00",
            "Figure": "fig/TGE-5103-TaitungFood-04.jpg",
            "Link": "https://www.facebook.com/HeiSongMuttonHotPot/"
        },
        {
            "NO": "005",
            "Name": "寶桑豆花",
            "Category": "台東",
            "Type": "台東市",
            "Description": "開了三十多年的老店舖，甜度適中的糖水配上軟綿的豆花，粉圓是軟Q的口感，\b雖然店鋪不是很大，人潮總是絡繹不絕，喜歡這樣的古早味甜點，清甜的美味驟降了熱暑的不適感。",
            "Address": "台東縣台東市正氣路115號",
            "Tel": "（08）934-7213",
            "Hours": "14:00–22:00",
            "Figure": "fig/TGE-5103-TaitungFood-05.jpg",
            "Link": "https://www.facebook.com/pages/category/Restaurant/%E5%8F%B0%E6%9D%B1%E5%8F%A4%E6%97%A9%E5%91%B3%E5%AF%B6%E6%A1%91%E8%B1%86%E8%8A%B1-109125305832169/"
        },
        {
            "NO": "006",
            "Name": "都蘭海角咖啡",
            "Category": "台東",
            "Type": "東河鄉",
            "Description": "不起眼的小巷中，開車約莫50m就抵達的世外桃源，清一色的外國面孔，配上碧海藍天的海天一線。廣大的腹地能夠當作高爾夫球的練習場地，有時也會當作有露營地使用。享受美景與咖啡還不夠？拿起你的浪板去衝浪吧！都蘭海角咖啡還有提供衝浪教學的服務，第一次體驗的朋友也別擔心，旁邊都會有教練指導你！",
            "Address": "台東縣東河鄉鉛橋產業道路",
            "Tel": "0903-262-923 ",
            "Hours": "11:00-19:30",
            "Figure": "fig/TGE-5103-TaitungFood-06.jpg",
            "Link": "https://www.facebook.com/capeparadisedulan/"
        },
        {
            "NO": "007",
            "Name": "藍色愛情海 ",
            "Category": "台東",
            "Type": "台東市",
            "Description": "無菜單的原住民料理，便宜的價格卻吃得到高品質的餐點。每次去的菜色都不同，去的時候一定要先訂位，因為都準備最新鮮的食材，所以會依照訂位來準備當天的份量。藍色愛情海不只菜色好吃，連景色都是絕佳美景，網美的你可別錯過機會拍照。招牌烤雞也是需要提前預約的呦！酥脆的金黃外皮，肉質特別的鮮美，旁邊還會附手套方便食用。",
            "Address": "台東縣台東市吉林路二段634號",
            "Tel": "（08）928-1758 ",
            "Hours": "11:00–14:00，17:00–20:00",
            "Figure": "fig/TGE-5103-TaitungFood-07.jpg",
            "Link": "https://www.facebook.com/pages/category/Restaurant/%E5%8F%B0%E6%9D%B1%E8%97%8D%E8%89%B2%E6%84%9B%E6%83%85%E6%B5%B7-117842081572722/"
        },
        {
            "NO": "008",
            "Name": "池上便當",
            "Category": "台東",
            "Type": "池上鄉",
            "Description": "位於台東池上車站旁就有三家便當：家鄉、悟饕、全美行，到了台東當然要吃池上便當！說到池上便當，最讓人念念不忘的就是那冠軍池上米，就算便當放涼了才吃，那米飯還是一樣Q。",
            "Address": "台東縣池上鄉中正路4號",
            "Tel": "（08）986-3521",
            "Hours": "07:00–20:00",
            "Figure": "fig/TGE-5103-TaitungFood-08.jpg",
            "Link": "https://www.wu-tau.com/"
        },
        {
            "NO": "009",
            "Name": "台澢號",
            "Category": "台東",
            "Type": "東河鄉",
            "Description": "台澢號是位於都蘭糖廠附近的一家特色冰店，「台澢」是台東的台語發音。店裡以造型獨特的冰品「海浪冰」聞名，使用藍柑桔醬以及鹹奶油製作出蔚藍的海浪以及浪花的視覺效果。除了冰品以外，炸物也非常美味，是來到台東都蘭必吃的特色美食。",
            "Address": "台東縣東河鄉146-2號",
            "Tel": "0955 092 961",
            "Hours": "週三至週日 11:00 - 18:30",
            "Figure": "fig/TGE-5103-TaitungFood-09.jpg",
            "Link": "https://www.facebook.com/TaitungTeaHouse/"
        },
        {
            "NO": "010",
            "Name": "黃記蔥油餅",
            "Category": "台東",
            "Type": "台東市",
            "Description": "黃記蔥油餅位在台東市海濱公園附近，鮮甜的青蔥加上九層塔，為蔥油餅的口感更添層次。大部份時候需要小排隊，不過店家手腳很快所以並不會等候太久，拿到熱騰騰的蔥油餅還可以到一旁的海濱公園看海享受美味蔥油餅，是非常推薦來台東品嚐的美食小吃。",
            "Address": "台東縣台東市南海路36號",
            "Tel": "0915 308 581",
            "Hours": "14:00 - 18:00",
            "Figure": "fig/TGE-5103-TaitungFood-10.jpg",
            "Link": "https://www.facebook.com/%E9%BB%83%E8%A8%98%E8%94%A5%E6%B2%B9%E9%A4%85%E6%B5%B7%E6%BF%B1%E5%BA%97-440404255983022/"
        }
    ]